[0] [GPS_RAW_INT] {'mavpackettype': 'GPS_RAW_INT', 'time_usec': 2923312553, 'fix_type': 3, 'lat': 462865373, 'lon': 213863903, 'alt': 128700, 'eph': 190, 'epv': 283, 'vel': 14, 'cog': 11050, 'satellites_visible': 11, 'alt_ellipsoid': 0, 'h_acc': 1900, 'v_acc': 2830, 'vel_acc': 0, 'hdg_acc': 0, 'yaw': 0}
[1] [GPS_RAW_INT] {'mavpackettype': 'GPS_RAW_INT', 'time_usec': 2923836427, 'fix_type': 3, 'lat': 462865376, 'lon': 213863899, 'alt': 128540, 'eph': 190, 'epv': 282, 'vel': 14, 'cog': 11050, 'satellites_visible': 11, 'alt_ellipsoid': 0, 'h_acc': 1900, 'v_acc': 2820, 'vel_acc': 0, 'hdg_acc': 0, 'yaw': 0}
[2] [GPS_RAW_INT] {'mavpackettype': 'GPS_RAW_INT', 'time_usec': 2924361895, 'fix_type': 3, 'lat': 462865376, 'lon': 213863895, 'alt': 128470, 'eph': 191, 'epv': 282, 'vel': 3, 'cog': 11050, 'satellites_visible': 11, 'alt_ellipsoid': 0, 'h_acc': 1910, 'v_acc': 2820, 'vel_acc': 0, 'hdg_acc': 0, 'yaw': 0}
[3] [GPS_RAW_INT] {'mavpackettype': 'GPS_RAW_INT', 'time_usec': 2924886295, 'fix_type': 3, 'lat': 462865380, 'lon': 213863890, 'alt': 128310, 'eph': 192, 'epv': 283, 'vel': 8, 'cog': 11050, 'satellites_visible': 10, 'alt_ellipsoid': 0, 'h_acc': 1920, 'v_acc': 2830, 'vel_acc': 0, 'hdg_acc': 0, 'yaw': 0}
[4] [GPS_RAW_INT] {'mavpackettype': 'GPS_RAW_INT', 'time_usec': 2925410944, 'fix_type': 3, 'lat': 462865382, 'lon': 213863886, 'alt': 128240, 'eph': 193, 'epv': 283, 'vel': 0, 'cog': 11050, 'satellites_visible': 10, 'alt_ellipsoid': 0, 'h_acc': 1930, 'v_acc': 2830, 'vel_acc': 0, 'hdg_acc': 0, 'yaw': 0}
[5] [GPS_RAW_INT] {'mavpackettype': 'GPS_RAW_INT', 'time_usec': 2925935800, 'fix_type': 3, 'lat': 462865386, 'lon': 213863885, 'alt': 128210, 'eph': 194, 'epv': 284, 'vel': 6, 'cog': 11050, 'satellites_visible': 10, 'alt_ellipsoid': 0, 'h_acc': 1940, 'v_acc': 2840, 'vel_acc': 0, 'hdg_acc': 0, 'yaw': 0}
[6] [GPS_RAW_INT] {'mavpackettype': 'GPS_RAW_INT', 'time_usec': 2926457804, 'fix_type': 3, 'lat': 462865388, 'lon': 213863882, 'alt': 128130, 'eph': 195, 'epv': 285, 'vel': 2, 'cog': 11050, 'satellites_visible': 10, 'alt_ellipsoid': 0, 'h_acc': 1950, 'v_acc': 2850, 'vel_acc': 0, 'hdg_acc': 0, 'yaw': 0}
[7] [GPS_RAW_INT] {'mavpackettype': 'GPS_RAW_INT', 'time_usec': 2926982572, 'fix_type': 3, 'lat': 462865392, 'lon': 213863880, 'alt': 128100, 'eph': 196, 'epv': 285, 'vel': 6, 'cog': 11050, 'satellites_visible': 10, 'alt_ellipsoid': 0, 'h_acc': 1960, 'v_acc': 2850, 'vel_acc': 0, 'hdg_acc': 0, 'yaw': 0}
[8] [GPS_RAW_INT] {'mavpackettype': 'GPS_RAW_INT', 'time_usec': 2927505769, 'fix_type': 3, 'lat': 462865397, 'lon': 213863880, 'alt': 128070, 'eph': 197, 'epv': 286, 'vel': 4, 'cog': 11050, 'satellites_visible': 10, 'alt_ellipsoid': 0, 'h_acc': 1970, 'v_acc': 2860, 'vel_acc': 0, 'hdg_acc': 0, 'yaw': 0}
[9] [GPS_RAW_INT] {'mavpackettype': 'GPS_RAW_INT', 'time_usec': 2928030954, 'fix_type': 3, 'lat': 462865403, 'lon': 213863880, 'alt': 128030, 'eph': 198, 'epv': 287, 'vel': 1, 'cog': 11050, 'satellites_visible': 10, 'alt_ellipsoid': 0, 'h_acc': 1980, 'v_acc': 2870, 'vel_acc': 0, 'hdg_acc': 0, 'yaw': 0}
[10] [GPS_RAW_INT] {'mavpackettype': 'GPS_RAW_INT', 'time_usec': 2928554175, 'fix_type': 3, 'lat': 462865403, 'lon': 213863879, 'alt': 128000, 'eph': 199, 'epv': 287, 'vel': 2, 'cog': 11050, 'satellites_visible': 10, 'alt_ellipsoid': 0, 'h_acc': 1990, 'v_acc': 2870, 'vel_acc': 0, 'hdg_acc': 0, 'yaw': 0}
[11] [GPS_RAW_INT] {'mavpackettype': 'GPS_RAW_INT', 'time_usec': 2929078148, 'fix_type': 3, 'lat': 462865405, 'lon': 213863878, 'alt': 127990, 'eph': 200, 'epv': 288, 'vel': 10, 'cog': 11050, 'satellites_visible': 10, 'alt_ellipsoid': 0, 'h_acc': 2000, 'v_acc': 2880, 'vel_acc': 0, 'hdg_acc': 0, 'yaw': 0}
[12] [GPS_RAW_INT] {'mavpackettype': 'GPS_RAW_INT', 'time_usec': 2930126085, 'fix_type': 3, 'lat': 462865410, 'lon': 213863872, 'alt': 127830, 'eph': 201, 'epv': 289, 'vel': 21, 'cog': 11050, 'satellites_visible': 10, 'alt_ellipsoid': 0, 'h_acc': 2010, 'v_acc': 2890, 'vel_acc': 0, 'hdg_acc': 0, 'yaw': 0}
[13] [GPS_RAW_INT] {'mavpackettype': 'GPS_RAW_INT', 'time_usec': 2930650241, 'fix_type': 3, 'lat': 462865423, 'lon': 213863866, 'alt': 127740, 'eph': 202, 'epv': 289, 'vel': 12, 'cog': 11050, 'satellites_visible': 10, 'alt_ellipsoid': 0, 'h_acc': 2020, 'v_acc': 2890, 'vel_acc': 0, 'hdg_acc': 0, 'yaw': 0}
[14] [GPS_RAW_INT] {'mavpackettype': 'GPS_RAW_INT', 'time_usec': 2931174144, 'fix_type': 3, 'lat': 462865438, 'lon': 213863857, 'alt': 127620, 'eph': 204, 'epv': 289, 'vel': 3, 'cog': 1920, 'satellites_visible': 10, 'alt_ellipsoid': 0, 'h_acc': 2040, 'v_acc': 2890, 'vel_acc': 0, 'hdg_acc': 0, 'yaw': 0}
[15] [GPS_RAW_INT] {'mavpackettype': 'GPS_RAW_INT', 'time_usec': 2931698600, 'fix_type': 3, 'lat': 462865438, 'lon': 213863849, 'alt': 127390, 'eph': 205, 'epv': 289, 'vel': 14, 'cog': 1920, 'satellites_visible': 10, 'alt_ellipsoid': 0, 'h_acc': 2050, 'v_acc': 2890, 'vel_acc': 0, 'hdg_acc': 0, 'yaw': 0}
[16] [GPS_RAW_INT] {'mavpackettype': 'GPS_RAW_INT', 'time_usec': 2932222776, 'fix_type': 3, 'lat': 462865435, 'lon': 213863848, 'alt': 127330, 'eph': 207, 'epv': 290, 'vel': 14, 'cog': 1920, 'satellites_visible': 10, 'alt_ellipsoid': 0, 'h_acc': 2070, 'v_acc': 2900, 'vel_acc': 0, 'hdg_acc': 0, 'yaw': 0}
[17] [GPS_RAW_INT] {'mavpackettype': 'GPS_RAW_INT', 'time_usec': 2932747533, 'fix_type': 3, 'lat': 462865420, 'lon': 213863841, 'alt': 127080, 'eph': 210, 'epv': 293, 'vel': 16, 'cog': 1920, 'satellites_visible': 10, 'alt_ellipsoid': 0, 'h_acc': 2100, 'v_acc': 2930, 'vel_acc': 0, 'hdg_acc': 0, 'yaw': 0}
[18] [GPS_RAW_INT] {'mavpackettype': 'GPS_RAW_INT', 'time_usec': 2933270794, 'fix_type': 3, 'lat': 462865408, 'lon': 213863833, 'alt': 126910, 'eph': 211, 'epv': 295, 'vel': 34, 'cog': 5500, 'satellites_visible': 9, 'alt_ellipsoid': 0, 'h_acc': 2110, 'v_acc': 2950, 'vel_acc': 0, 'hdg_acc': 0, 'yaw': 0}
[19] [GPS_RAW_INT] {'mavpackettype': 'GPS_RAW_INT', 'time_usec': 2933793762, 'fix_type': 3, 'lat': 462865408, 'lon': 213863833, 'alt': 126960, 'eph': 212, 'epv': 296, 'vel': 20, 'cog': 5500, 'satellites_visible': 9, 'alt_ellipsoid': 0, 'h_acc': 2120, 'v_acc': 2960, 'vel_acc': 0, 'hdg_acc': 0, 'yaw': 0}
[20] [GPS_RAW_INT] {'mavpackettype': 'GPS_RAW_INT', 'time_usec': 2934318207, 'fix_type': 3, 'lat': 462865414, 'lon': 213863837, 'alt': 126670, 'eph': 213, 'epv': 298, 'vel': 16, 'cog': 5500, 'satellites_visible': 9, 'alt_ellipsoid': 0, 'h_acc': 2130, 'v_acc': 2980, 'vel_acc': 0, 'hdg_acc': 0, 'yaw': 0}
[21] [GPS_RAW_INT] {'mavpackettype': 'GPS_RAW_INT', 'time_usec': 2934843235, 'fix_type': 3, 'lat': 462865421, 'lon': 213863827, 'alt': 126760, 'eph': 215, 'epv': 299, 'vel': 11, 'cog': 35590, 'satellites_visible': 8, 'alt_ellipsoid': 0, 'h_acc': 2150, 'v_acc': 2990, 'vel_acc': 0, 'hdg_acc': 0, 'yaw': 0}
[22] [GPS_RAW_INT] {'mavpackettype': 'GPS_RAW_INT', 'time_usec': 2935367943, 'fix_type': 3, 'lat': 462865398, 'lon': 213863836, 'alt': 126880, 'eph': 217, 'epv': 298, 'vel': 23, 'cog': 28060, 'satellites_visible': 8, 'alt_ellipsoid': 0, 'h_acc': 2170, 'v_acc': 2980, 'vel_acc': 0, 'hdg_acc': 0, 'yaw': 0}
[23] [GPS_RAW_INT] {'mavpackettype': 'GPS_RAW_INT', 'time_usec': 2935892739, 'fix_type': 3, 'lat': 462865408, 'lon': 213863842, 'alt': 126680, 'eph': 220, 'epv': 297, 'vel': 15, 'cog': 28060, 'satellites_visible': 8, 'alt_ellipsoid': 0, 'h_acc': 2200, 'v_acc': 2970, 'vel_acc': 0, 'hdg_acc': 0, 'yaw': 0}
[24] [GPS_RAW_INT] {'mavpackettype': 'GPS_RAW_INT', 'time_usec': 2936416491, 'fix_type': 3, 'lat': 462865418, 'lon': 213863838, 'alt': 126510, 'eph': 226, 'epv': 297, 'vel': 18, 'cog': 28060, 'satellites_visible': 9, 'alt_ellipsoid': 0, 'h_acc': 2260, 'v_acc': 2970, 'vel_acc': 0, 'hdg_acc': 0, 'yaw': 0}
[25] [GPS_RAW_INT] {'mavpackettype': 'GPS_RAW_INT', 'time_usec': 2936940938, 'fix_type': 3, 'lat': 462865420, 'lon': 213863810, 'alt': 125740, 'eph': 228, 'epv': 289, 'vel': 9, 'cog': 28060, 'satellites_visible': 9, 'alt_ellipsoid': 0, 'h_acc': 2280, 'v_acc': 2890, 'vel_acc': 0, 'hdg_acc': 0, 'yaw': 0}
[26] [GPS_RAW_INT] {'mavpackettype': 'GPS_RAW_INT', 'time_usec': 2937465240, 'fix_type': 3, 'lat': 462865405, 'lon': 213863807, 'alt': 125640, 'eph': 231, 'epv': 290, 'vel': 22, 'cog': 28060, 'satellites_visible': 10, 'alt_ellipsoid': 0, 'h_acc': 2310, 'v_acc': 2900, 'vel_acc': 0, 'hdg_acc': 0, 'yaw': 0}
[27] [GPS_RAW_INT] {'mavpackettype': 'GPS_RAW_INT', 'time_usec': 2937990076, 'fix_type': 3, 'lat': 462865405, 'lon': 213863812, 'alt': 125650, 'eph': 232, 'epv': 292, 'vel': 11, 'cog': 28060, 'satellites_visible': 10, 'alt_ellipsoid': 0, 'h_acc': 2320, 'v_acc': 2920, 'vel_acc': 0, 'hdg_acc': 0, 'yaw': 0}
[28] [GPS_RAW_INT] {'mavpackettype': 'GPS_RAW_INT', 'time_usec': 2938514078, 'fix_type': 3, 'lat': 462865390, 'lon': 213863810, 'alt': 125500, 'eph': 230, 'epv': 293, 'vel': 28, 'cog': 28060, 'satellites_visible': 9, 'alt_ellipsoid': 0, 'h_acc': 2300, 'v_acc': 2930, 'vel_acc': 0, 'hdg_acc': 0, 'yaw': 0}
[29] [GPS_RAW_INT] {'mavpackettype': 'GPS_RAW_INT', 'time_usec': 2939038249, 'fix_type': 3, 'lat': 462865395, 'lon': 213863829, 'alt': 125310, 'eph': 234, 'epv': 300, 'vel': 46, 'cog': 28060, 'satellites_visible': 9, 'alt_ellipsoid': 0, 'h_acc': 2340, 'v_acc': 3000, 'vel_acc': 0, 'hdg_acc': 0, 'yaw': 0}
[30] [GPS_RAW_INT] {'mavpackettype': 'GPS_RAW_INT', 'time_usec': 2939561402, 'fix_type': 3, 'lat': 462865391, 'lon': 213863851, 'alt': 125170, 'eph': 234, 'epv': 303, 'vel': 39, 'cog': 28060, 'satellites_visible': 9, 'alt_ellipsoid': 0, 'h_acc': 2340, 'v_acc': 3030, 'vel_acc': 0, 'hdg_acc': 0, 'yaw': 0}
[31] [GPS_RAW_INT] {'mavpackettype': 'GPS_RAW_INT', 'time_usec': 2940086038, 'fix_type': 3, 'lat': 462865390, 'lon': 213863860, 'alt': 124850, 'eph': 232, 'epv': 301, 'vel': 3, 'cog': 28060, 'satellites_visible': 9, 'alt_ellipsoid': 0, 'h_acc': 2320, 'v_acc': 3010, 'vel_acc': 0, 'hdg_acc': 0, 'yaw': 0}
[32] [GPS_RAW_INT] {'mavpackettype': 'GPS_RAW_INT', 'time_usec': 2940610684, 'fix_type': 3, 'lat': 462865383, 'lon': 213863848, 'alt': 124630, 'eph': 230, 'epv': 296, 'vel': 22, 'cog': 28060, 'satellites_visible': 9, 'alt_ellipsoid': 0, 'h_acc': 2300, 'v_acc': 2960, 'vel_acc': 0, 'hdg_acc': 0, 'yaw': 0}
[33] [GPS_RAW_INT] {'mavpackettype': 'GPS_RAW_INT', 'time_usec': 2941134522, 'fix_type': 3, 'lat': 462865397, 'lon': 213863848, 'alt': 124340, 'eph': 226, 'epv': 292, 'vel': 33, 'cog': 28060, 'satellites_visible': 9, 'alt_ellipsoid': 0, 'h_acc': 2260, 'v_acc': 2920, 'vel_acc': 0, 'hdg_acc': 0, 'yaw': 0}
[34] [GPS_RAW_INT] {'mavpackettype': 'GPS_RAW_INT', 'time_usec': 2941659373, 'fix_type': 3, 'lat': 462865398, 'lon': 213863865, 'alt': 124050, 'eph': 224, 'epv': 290, 'vel': 40, 'cog': 34810, 'satellites_visible': 9, 'alt_ellipsoid': 0, 'h_acc': 2240, 'v_acc': 2900, 'vel_acc': 0, 'hdg_acc': 0, 'yaw': 0}
[35] [GPS_RAW_INT] {'mavpackettype': 'GPS_RAW_INT', 'time_usec': 2942183840, 'fix_type': 3, 'lat': 462865373, 'lon': 213863879, 'alt': 124070, 'eph': 225, 'epv': 288, 'vel': 50, 'cog': 11730, 'satellites_visible': 9, 'alt_ellipsoid': 0, 'h_acc': 2250, 'v_acc': 2880, 'vel_acc': 0, 'hdg_acc': 0, 'yaw': 0}
[36] [GPS_RAW_INT] {'mavpackettype': 'GPS_RAW_INT', 'time_usec': 2942707140, 'fix_type': 3, 'lat': 462865425, 'lon': 213863898, 'alt': 123930, 'eph': 232, 'epv': 290, 'vel': 140, 'cog': 2370, 'satellites_visible': 9, 'alt_ellipsoid': 0, 'h_acc': 2320, 'v_acc': 2900, 'vel_acc': 0, 'hdg_acc': 0, 'yaw': 0}
[37] [GPS_RAW_INT] {'mavpackettype': 'GPS_RAW_INT', 'time_usec': 2943230511, 'fix_type': 3, 'lat': 462865424, 'lon': 213863916, 'alt': 123910, 'eph': 238, 'epv': 292, 'vel': 45, 'cog': 2070, 'satellites_visible': 9, 'alt_ellipsoid': 0, 'h_acc': 2380, 'v_acc': 2920, 'vel_acc': 0, 'hdg_acc': 0, 'yaw': 0}
[38] [GPS_RAW_INT] {'mavpackettype': 'GPS_RAW_INT', 'time_usec': 2943755306, 'fix_type': 3, 'lat': 462865428, 'lon': 213863932, 'alt': 123690, 'eph': 245, 'epv': 291, 'vel': 19, 'cog': 2070, 'satellites_visible': 10, 'alt_ellipsoid': 0, 'h_acc': 2450, 'v_acc': 2910, 'vel_acc': 0, 'hdg_acc': 0, 'yaw': 0}
[39] [GPS_RAW_INT] {'mavpackettype': 'GPS_RAW_INT', 'time_usec': 2944279139, 'fix_type': 3, 'lat': 462865391, 'lon': 213863966, 'alt': 123520, 'eph': 251, 'epv': 293, 'vel': 58, 'cog': 8280, 'satellites_visible': 10, 'alt_ellipsoid': 0, 'h_acc': 2510, 'v_acc': 2930, 'vel_acc': 0, 'hdg_acc': 0, 'yaw': 0}
[40] [GPS_RAW_INT] {'mavpackettype': 'GPS_RAW_INT', 'time_usec': 2944804006, 'fix_type': 3, 'lat': 462865394, 'lon': 213863995, 'alt': 123620, 'eph': 253, 'epv': 292, 'vel': 40, 'cog': 8280, 'satellites_visible': 10, 'alt_ellipsoid': 0, 'h_acc': 2530, 'v_acc': 2920, 'vel_acc': 0, 'hdg_acc': 0, 'yaw': 0}
[41] [GPS_RAW_INT] {'mavpackettype': 'GPS_RAW_INT', 'time_usec': 2945328612, 'fix_type': 3, 'lat': 462865355, 'lon': 213864014, 'alt': 123380, 'eph': 258, 'epv': 296, 'vel': 61, 'cog': 14870, 'satellites_visible': 9, 'alt_ellipsoid': 0, 'h_acc': 2580, 'v_acc': 2960, 'vel_acc': 0, 'hdg_acc': 0, 'yaw': 0}
[42] [GPS_RAW_INT] {'mavpackettype': 'GPS_RAW_INT', 'time_usec': 2945851316, 'fix_type': 3, 'lat': 462865350, 'lon': 213864010, 'alt': 123150, 'eph': 259, 'epv': 298, 'vel': 24, 'cog': 15720, 'satellites_visible': 10, 'alt_ellipsoid': 0, 'h_acc': 2590, 'v_acc': 2980, 'vel_acc': 0, 'hdg_acc': 0, 'yaw': 0}
[43] [GPS_RAW_INT] {'mavpackettype': 'GPS_RAW_INT', 'time_usec': 2946376283, 'fix_type': 3, 'lat': 462865336, 'lon': 213864040, 'alt': 122990, 'eph': 262, 'epv': 301, 'vel': 64, 'cog': 14940, 'satellites_visible': 10, 'alt_ellipsoid': 0, 'h_acc': 2620, 'v_acc': 3010, 'vel_acc': 0, 'hdg_acc': 0, 'yaw': 0}
[44] [GPS_RAW_INT] {'mavpackettype': 'GPS_RAW_INT', 'time_usec': 2947424474, 'fix_type': 3, 'lat': 462865282, 'lon': 213864128, 'alt': 122950, 'eph': 260, 'epv': 304, 'vel': 69, 'cog': 13040, 'satellites_visible': 11, 'alt_ellipsoid': 0, 'h_acc': 2600, 'v_acc': 3040, 'vel_acc': 0, 'hdg_acc': 0, 'yaw': 0}
[45] [GPS_RAW_INT] {'mavpackettype': 'GPS_RAW_INT', 'time_usec': 2947949223, 'fix_type': 3, 'lat': 462865264, 'lon': 213864191, 'alt': 122690, 'eph': 258, 'epv': 303, 'vel': 99, 'cog': 12530, 'satellites_visible': 11, 'alt_ellipsoid': 0, 'h_acc': 2580, 'v_acc': 3030, 'vel_acc': 0, 'hdg_acc': 0, 'yaw': 0}
[46] [GPS_RAW_INT] {'mavpackettype': 'GPS_RAW_INT', 'time_usec': 2948473838, 'fix_type': 3, 'lat': 462865247, 'lon': 213864246, 'alt': 122660, 'eph': 257, 'epv': 302, 'vel': 68, 'cog': 11480, 'satellites_visible': 12, 'alt_ellipsoid': 0, 'h_acc': 2570, 'v_acc': 3020, 'vel_acc': 0, 'hdg_acc': 0, 'yaw': 0}
[47] [GPS_RAW_INT] {'mavpackettype': 'GPS_RAW_INT', 'time_usec': 2948999139, 'fix_type': 3, 'lat': 462865244, 'lon': 213864268, 'alt': 122380, 'eph': 254, 'epv': 301, 'vel': 51, 'cog': 12010, 'satellites_visible': 13, 'alt_ellipsoid': 0, 'h_acc': 2540, 'v_acc': 3010, 'vel_acc': 0, 'hdg_acc': 0, 'yaw': 0}
[48] [GPS_RAW_INT] {'mavpackettype': 'GPS_RAW_INT', 'time_usec': 2949524277, 'fix_type': 3, 'lat': 462865217, 'lon': 213864320, 'alt': 122270, 'eph': 251, 'epv': 300, 'vel': 86, 'cog': 12740, 'satellites_visible': 13, 'alt_ellipsoid': 0, 'h_acc': 2510, 'v_acc': 3000, 'vel_acc': 0, 'hdg_acc': 0, 'yaw': 0}
[49] [GPS_RAW_INT] {'mavpackettype': 'GPS_RAW_INT', 'time_usec': 2950048981, 'fix_type': 3, 'lat': 462865204, 'lon': 213864354, 'alt': 122200, 'eph': 250, 'epv': 300, 'vel': 74, 'cog': 12330, 'satellites_visible': 13, 'alt_ellipsoid': 0, 'h_acc': 2500, 'v_acc': 3000, 'vel_acc': 0, 'hdg_acc': 0, 'yaw': 0}
[50] [GPS_RAW_INT] {'mavpackettype': 'GPS_RAW_INT', 'time_usec': 2950573050, 'fix_type': 3, 'lat': 462865181, 'lon': 213864385, 'alt': 121980, 'eph': 248, 'epv': 300, 'vel': 35, 'cog': 12870, 'satellites_visible': 13, 'alt_ellipsoid': 0, 'h_acc': 2480, 'v_acc': 3000, 'vel_acc': 0, 'hdg_acc': 0, 'yaw': 0}
[51] [GPS_RAW_INT] {'mavpackettype': 'GPS_RAW_INT', 'time_usec': 2951097174, 'fix_type': 3, 'lat': 462865154, 'lon': 213864435, 'alt': 122110, 'eph': 248, 'epv': 302, 'vel': 99, 'cog': 12840, 'satellites_visible': 13, 'alt_ellipsoid': 0, 'h_acc': 2480, 'v_acc': 3020, 'vel_acc': 0, 'hdg_acc': 0, 'yaw': 0}
[52] [GPS_RAW_INT] {'mavpackettype': 'GPS_RAW_INT', 'time_usec': 2951622018, 'fix_type': 3, 'lat': 462865132, 'lon': 213864479, 'alt': 122280, 'eph': 248, 'epv': 303, 'vel': 110, 'cog': 12660, 'satellites_visible': 13, 'alt_ellipsoid': 0, 'h_acc': 2480, 'v_acc': 3030, 'vel_acc': 0, 'hdg_acc': 0, 'yaw': 0}
[53] [GPS_RAW_INT] {'mavpackettype': 'GPS_RAW_INT', 'time_usec': 2952146571, 'fix_type': 3, 'lat': 462865111, 'lon': 213864526, 'alt': 122160, 'eph': 248, 'epv': 305, 'vel': 93, 'cog': 12350, 'satellites_visible': 12, 'alt_ellipsoid': 0, 'h_acc': 2480, 'v_acc': 3050, 'vel_acc': 0, 'hdg_acc': 0, 'yaw': 0}
[54] [GPS_RAW_INT] {'mavpackettype': 'GPS_RAW_INT', 'time_usec': 2952670571, 'fix_type': 3, 'lat': 462865082, 'lon': 213864557, 'alt': 122370, 'eph': 247, 'epv': 305, 'vel': 67, 'cog': 14070, 'satellites_visible': 12, 'alt_ellipsoid': 0, 'h_acc': 2470, 'v_acc': 3050, 'vel_acc': 0, 'hdg_acc': 0, 'yaw': 0}
[55] [GPS_RAW_INT] {'mavpackettype': 'GPS_RAW_INT', 'time_usec': 2953194167, 'fix_type': 3, 'lat': 462865067, 'lon': 213864597, 'alt': 122110, 'eph': 247, 'epv': 307, 'vel': 69, 'cog': 12130, 'satellites_visible': 13, 'alt_ellipsoid': 0, 'h_acc': 2470, 'v_acc': 3070, 'vel_acc': 0, 'hdg_acc': 0, 'yaw': 0}
[56] [GPS_RAW_INT] {'mavpackettype': 'GPS_RAW_INT', 'time_usec': 2953718637, 'fix_type': 3, 'lat': 462865052, 'lon': 213864648, 'alt': 121900, 'eph': 249, 'epv': 310, 'vel': 53, 'cog': 10700, 'satellites_visible': 13, 'alt_ellipsoid': 0, 'h_acc': 2490, 'v_acc': 3100, 'vel_acc': 0, 'hdg_acc': 0, 'yaw': 0}
[57] [GPS_RAW_INT] {'mavpackettype': 'GPS_RAW_INT', 'time_usec': 2954243131, 'fix_type': 3, 'lat': 462865043, 'lon': 213864679, 'alt': 121740, 'eph': 250, 'epv': 310, 'vel': 62, 'cog': 11580, 'satellites_visible': 13, 'alt_ellipsoid': 0, 'h_acc': 2500, 'v_acc': 3100, 'vel_acc': 0, 'hdg_acc': 0, 'yaw': 0}
[58] [GPS_RAW_INT] {'mavpackettype': 'GPS_RAW_INT', 'time_usec': 2954766054, 'fix_type': 3, 'lat': 462865027, 'lon': 213864728, 'alt': 121450, 'eph': 252, 'epv': 309, 'vel': 98, 'cog': 12530, 'satellites_visible': 13, 'alt_ellipsoid': 0, 'h_acc': 2520, 'v_acc': 3090, 'vel_acc': 0, 'hdg_acc': 0, 'yaw': 0}
[59] [GPS_RAW_INT] {'mavpackettype': 'GPS_RAW_INT', 'time_usec': 2955289496, 'fix_type': 3, 'lat': 462865034, 'lon': 213864743, 'alt': 121170, 'eph': 252, 'epv': 307, 'vel': 99, 'cog': 12090, 'satellites_visible': 13, 'alt_ellipsoid': 0, 'h_acc': 2520, 'v_acc': 3070, 'vel_acc': 0, 'hdg_acc': 0, 'yaw': 0}
[60] [GPS_RAW_INT] {'mavpackettype': 'GPS_RAW_INT', 'time_usec': 2955813663, 'fix_type': 3, 'lat': 462865012, 'lon': 213864792, 'alt': 120940, 'eph': 251, 'epv': 306, 'vel': 59, 'cog': 11690, 'satellites_visible': 14, 'alt_ellipsoid': 0, 'h_acc': 2510, 'v_acc': 3060, 'vel_acc': 0, 'hdg_acc': 0, 'yaw': 0}
[61] [GPS_RAW_INT] {'mavpackettype': 'GPS_RAW_INT', 'time_usec': 2956338353, 'fix_type': 3, 'lat': 462864996, 'lon': 213864807, 'alt': 120680, 'eph': 248, 'epv': 304, 'vel': 45, 'cog': 12440, 'satellites_visible': 13, 'alt_ellipsoid': 0, 'h_acc': 2480, 'v_acc': 3040, 'vel_acc': 0, 'hdg_acc': 0, 'yaw': 0}
[62] [GPS_RAW_INT] {'mavpackettype': 'GPS_RAW_INT', 'time_usec': 2956861542, 'fix_type': 3, 'lat': 462864984, 'lon': 213864840, 'alt': 120640, 'eph': 247, 'epv': 304, 'vel': 39, 'cog': 12030, 'satellites_visible': 13, 'alt_ellipsoid': 0, 'h_acc': 2470, 'v_acc': 3040, 'vel_acc': 0, 'hdg_acc': 0, 'yaw': 0}
[63] [GPS_RAW_INT] {'mavpackettype': 'GPS_RAW_INT', 'time_usec': 2957386473, 'fix_type': 3, 'lat': 462864977, 'lon': 213864880, 'alt': 120370, 'eph': 247, 'epv': 304, 'vel': 52, 'cog': 12030, 'satellites_visible': 13, 'alt_ellipsoid': 0, 'h_acc': 2470, 'v_acc': 3040, 'vel_acc': 0, 'hdg_acc': 0, 'yaw': 0}
[64] [GPS_RAW_INT] {'mavpackettype': 'GPS_RAW_INT', 'time_usec': 2957910933, 'fix_type': 3, 'lat': 462864968, 'lon': 213864928, 'alt': 120640, 'eph': 247, 'epv': 300, 'vel': 30, 'cog': 12030, 'satellites_visible': 14, 'alt_ellipsoid': 0, 'h_acc': 2470, 'v_acc': 3000, 'vel_acc': 0, 'hdg_acc': 0, 'yaw': 0}
[65] [GPS_RAW_INT] {'mavpackettype': 'GPS_RAW_INT', 'time_usec': 2958436109, 'fix_type': 3, 'lat': 462864947, 'lon': 213864963, 'alt': 121080, 'eph': 247, 'epv': 296, 'vel': 51, 'cog': 13290, 'satellites_visible': 14, 'alt_ellipsoid': 0, 'h_acc': 2470, 'v_acc': 2960, 'vel_acc': 0, 'hdg_acc': 0, 'yaw': 0}
[66] [GPS_RAW_INT] {'mavpackettype': 'GPS_RAW_INT', 'time_usec': 2958959550, 'fix_type': 3, 'lat': 462864933, 'lon': 213865020, 'alt': 121620, 'eph': 246, 'epv': 292, 'vel': 9, 'cog': 12750, 'satellites_visible': 14, 'alt_ellipsoid': 0, 'h_acc': 2460, 'v_acc': 2920, 'vel_acc': 0, 'hdg_acc': 0, 'yaw': 0}
[67] [GPS_RAW_INT] {'mavpackettype': 'GPS_RAW_INT', 'time_usec': 2959484109, 'fix_type': 3, 'lat': 462864932, 'lon': 213865035, 'alt': 121780, 'eph': 245, 'epv': 291, 'vel': 6, 'cog': 12750, 'satellites_visible': 14, 'alt_ellipsoid': 0, 'h_acc': 2450, 'v_acc': 2910, 'vel_acc': 0, 'hdg_acc': 0, 'yaw': 0}
[68] [GPS_RAW_INT] {'mavpackettype': 'GPS_RAW_INT', 'time_usec': 2960008179, 'fix_type': 3, 'lat': 462864927, 'lon': 213865057, 'alt': 121930, 'eph': 244, 'epv': 290, 'vel': 6, 'cog': 12750, 'satellites_visible': 14, 'alt_ellipsoid': 0, 'h_acc': 2440, 'v_acc': 2900, 'vel_acc': 0, 'hdg_acc': 0, 'yaw': 0}
[69] [GPS_RAW_INT] {'mavpackettype': 'GPS_RAW_INT', 'time_usec': 2960532205, 'fix_type': 3, 'lat': 462864916, 'lon': 213865076, 'alt': 121940, 'eph': 242, 'epv': 289, 'vel': 13, 'cog': 12750, 'satellites_visible': 14, 'alt_ellipsoid': 0, 'h_acc': 2420, 'v_acc': 2890, 'vel_acc': 0, 'hdg_acc': 0, 'yaw': 0}
[70] [GPS_RAW_INT] {'mavpackettype': 'GPS_RAW_INT', 'time_usec': 2961055235, 'fix_type': 3, 'lat': 462864916, 'lon': 213865086, 'alt': 121850, 'eph': 241, 'epv': 289, 'vel': 5, 'cog': 12750, 'satellites_visible': 14, 'alt_ellipsoid': 0, 'h_acc': 2410, 'v_acc': 2890, 'vel_acc': 0, 'hdg_acc': 0, 'yaw': 0}
[71] [GPS_RAW_INT] {'mavpackettype': 'GPS_RAW_INT', 'time_usec': 2961580326, 'fix_type': 3, 'lat': 462864913, 'lon': 213865119, 'alt': 121860, 'eph': 238, 'epv': 287, 'vel': 24, 'cog': 12750, 'satellites_visible': 14, 'alt_ellipsoid': 0, 'h_acc': 2380, 'v_acc': 2870, 'vel_acc': 0, 'hdg_acc': 0, 'yaw': 0}
[72] [GPS_RAW_INT] {'mavpackettype': 'GPS_RAW_INT', 'time_usec': 2962102980, 'fix_type': 3, 'lat': 462864926, 'lon': 213865138, 'alt': 121640, 'eph': 232, 'epv': 280, 'vel': 23, 'cog': 12750, 'satellites_visible': 14, 'alt_ellipsoid': 0, 'h_acc': 2320, 'v_acc': 2800, 'vel_acc': 0, 'hdg_acc': 0, 'yaw': 0}
[73] [GPS_RAW_INT] {'mavpackettype': 'GPS_RAW_INT', 'time_usec': 2962627116, 'fix_type': 3, 'lat': 462864950, 'lon': 213865161, 'alt': 121380, 'eph': 227, 'epv': 275, 'vel': 26, 'cog': 12750, 'satellites_visible': 14, 'alt_ellipsoid': 0, 'h_acc': 2270, 'v_acc': 2750, 'vel_acc': 0, 'hdg_acc': 0, 'yaw': 0}
[74] [GPS_RAW_INT] {'mavpackettype': 'GPS_RAW_INT', 'time_usec': 2963151850, 'fix_type': 3, 'lat': 462864959, 'lon': 213865179, 'alt': 121230, 'eph': 223, 'epv': 272, 'vel': 31, 'cog': 11470, 'satellites_visible': 14, 'alt_ellipsoid': 0, 'h_acc': 2230, 'v_acc': 2720, 'vel_acc': 0, 'hdg_acc': 0, 'yaw': 0}
[75] [GPS_RAW_INT] {'mavpackettype': 'GPS_RAW_INT', 'time_usec': 2963676335, 'fix_type': 3, 'lat': 462864967, 'lon': 213865180, 'alt': 121170, 'eph': 221, 'epv': 271, 'vel': 22, 'cog': 11470, 'satellites_visible': 14, 'alt_ellipsoid': 0, 'h_acc': 2210, 'v_acc': 2710, 'vel_acc': 0, 'hdg_acc': 0, 'yaw': 0}
[76] [GPS_RAW_INT] {'mavpackettype': 'GPS_RAW_INT', 'time_usec': 2964725084, 'fix_type': 3, 'lat': 462864994, 'lon': 213865203, 'alt': 120590, 'eph': 215, 'epv': 262, 'vel': 22, 'cog': 13020, 'satellites_visible': 14, 'alt_ellipsoid': 0, 'h_acc': 2150, 'v_acc': 2620, 'vel_acc': 0, 'hdg_acc': 0, 'yaw': 0}
[77] [GPS_RAW_INT] {'mavpackettype': 'GPS_RAW_INT', 'time_usec': 2965248817, 'fix_type': 3, 'lat': 462865001, 'lon': 213865205, 'alt': 120820, 'eph': 213, 'epv': 255, 'vel': 34, 'cog': 13020, 'satellites_visible': 14, 'alt_ellipsoid': 0, 'h_acc': 2130, 'v_acc': 2550, 'vel_acc': 0, 'hdg_acc': 0, 'yaw': 0}
[78] [GPS_RAW_INT] {'mavpackettype': 'GPS_RAW_INT', 'time_usec': 2965773324, 'fix_type': 3, 'lat': 462865008, 'lon': 213865248, 'alt': 121120, 'eph': 208, 'epv': 244, 'vel': 25, 'cog': 13020, 'satellites_visible': 14, 'alt_ellipsoid': 0, 'h_acc': 2080, 'v_acc': 2440, 'vel_acc': 0, 'hdg_acc': 0, 'yaw': 0}
[79] [GPS_RAW_INT] {'mavpackettype': 'GPS_RAW_INT', 'time_usec': 2966297670, 'fix_type': 3, 'lat': 462865005, 'lon': 213865285, 'alt': 121360, 'eph': 206, 'epv': 241, 'vel': 41, 'cog': 12170, 'satellites_visible': 14, 'alt_ellipsoid': 0, 'h_acc': 2060, 'v_acc': 2410, 'vel_acc': 0, 'hdg_acc': 0, 'yaw': 0}
[80] [GPS_RAW_INT] {'mavpackettype': 'GPS_RAW_INT', 'time_usec': 2966821088, 'fix_type': 3, 'lat': 462864993, 'lon': 213865329, 'alt': 121540, 'eph': 204, 'epv': 238, 'vel': 26, 'cog': 13860, 'satellites_visible': 14, 'alt_ellipsoid': 0, 'h_acc': 2040, 'v_acc': 2380, 'vel_acc': 0, 'hdg_acc': 0, 'yaw': 0}
[81] [GPS_RAW_INT] {'mavpackettype': 'GPS_RAW_INT', 'time_usec': 2967346352, 'fix_type': 3, 'lat': 462864987, 'lon': 213865370, 'alt': 121690, 'eph': 203, 'epv': 234, 'vel': 38, 'cog': 12630, 'satellites_visible': 14, 'alt_ellipsoid': 0, 'h_acc': 2030, 'v_acc': 2340, 'vel_acc': 0, 'hdg_acc': 0, 'yaw': 0}
[82] [GPS_RAW_INT] {'mavpackettype': 'GPS_RAW_INT', 'time_usec': 2967869490, 'fix_type': 3, 'lat': 462864992, 'lon': 213865397, 'alt': 121880, 'eph': 202, 'epv': 231, 'vel': 56, 'cog': 10980, 'satellites_visible': 14, 'alt_ellipsoid': 0, 'h_acc': 2020, 'v_acc': 2310, 'vel_acc': 0, 'hdg_acc': 0, 'yaw': 0}
[83] [GPS_RAW_INT] {'mavpackettype': 'GPS_RAW_INT', 'time_usec': 2968394351, 'fix_type': 3, 'lat': 462864991, 'lon': 213865436, 'alt': 122000, 'eph': 200, 'epv': 227, 'vel': 53, 'cog': 9290, 'satellites_visible': 14, 'alt_ellipsoid': 0, 'h_acc': 2000, 'v_acc': 2270, 'vel_acc': 0, 'hdg_acc': 0, 'yaw': 0}
[84] [GPS_RAW_INT] {'mavpackettype': 'GPS_RAW_INT', 'time_usec': 2968919246, 'fix_type': 3, 'lat': 462864993, 'lon': 213865461, 'alt': 122030, 'eph': 199, 'epv': 225, 'vel': 37, 'cog': 8630, 'satellites_visible': 14, 'alt_ellipsoid': 0, 'h_acc': 1990, 'v_acc': 2250, 'vel_acc': 0, 'hdg_acc': 0, 'yaw': 0}
[85] [GPS_RAW_INT] {'mavpackettype': 'GPS_RAW_INT', 'time_usec': 2969442127, 'fix_type': 3, 'lat': 462864980, 'lon': 213865501, 'alt': 121990, 'eph': 197, 'epv': 221, 'vel': 44, 'cog': 11440, 'satellites_visible': 14, 'alt_ellipsoid': 0, 'h_acc': 1970, 'v_acc': 2210, 'vel_acc': 0, 'hdg_acc': 0, 'yaw': 0}
[86] [GPS_RAW_INT] {'mavpackettype': 'GPS_RAW_INT', 'time_usec': 2969965946, 'fix_type': 3, 'lat': 462864977, 'lon': 213865545, 'alt': 121930, 'eph': 194, 'epv': 218, 'vel': 42, 'cog': 9680, 'satellites_visible': 14, 'alt_ellipsoid': 0, 'h_acc': 1940, 'v_acc': 2180, 'vel_acc': 0, 'hdg_acc': 0, 'yaw': 0}
[87] [GPS_RAW_INT] {'mavpackettype': 'GPS_RAW_INT', 'time_usec': 2970489446, 'fix_type': 3, 'lat': 462864975, 'lon': 213865569, 'alt': 121940, 'eph': 193, 'epv': 217, 'vel': 50, 'cog': 10670, 'satellites_visible': 14, 'alt_ellipsoid': 0, 'h_acc': 1930, 'v_acc': 2170, 'vel_acc': 0, 'hdg_acc': 0, 'yaw': 0}
[88] [GPS_RAW_INT] {'mavpackettype': 'GPS_RAW_INT', 'time_usec': 2971013789, 'fix_type': 3, 'lat': 462864965, 'lon': 213865612, 'alt': 122000, 'eph': 192, 'epv': 215, 'vel': 50, 'cog': 11730, 'satellites_visible': 14, 'alt_ellipsoid': 0, 'h_acc': 1920, 'v_acc': 2150, 'vel_acc': 0, 'hdg_acc': 0, 'yaw': 0}
[89] [GPS_RAW_INT] {'mavpackettype': 'GPS_RAW_INT', 'time_usec': 2971538807, 'fix_type': 3, 'lat': 462864967, 'lon': 213865644, 'alt': 122070, 'eph': 190, 'epv': 212, 'vel': 45, 'cog': 10310, 'satellites_visible': 14, 'alt_ellipsoid': 0, 'h_acc': 1900, 'v_acc': 2120, 'vel_acc': 0, 'hdg_acc': 0, 'yaw': 0}
[90] [GPS_RAW_INT] {'mavpackettype': 'GPS_RAW_INT', 'time_usec': 2972063212, 'fix_type': 3, 'lat': 462864952, 'lon': 213865695, 'alt': 122160, 'eph': 188, 'epv': 210, 'vel': 63, 'cog': 12710, 'satellites_visible': 13, 'alt_ellipsoid': 0, 'h_acc': 1880, 'v_acc': 2100, 'vel_acc': 0, 'hdg_acc': 0, 'yaw': 0}
[91] [GPS_RAW_INT] {'mavpackettype': 'GPS_RAW_INT', 'time_usec': 2972587371, 'fix_type': 3, 'lat': 462864941, 'lon': 213865756, 'alt': 122240, 'eph': 186, 'epv': 208, 'vel': 63, 'cog': 11490, 'satellites_visible': 13, 'alt_ellipsoid': 0, 'h_acc': 1860, 'v_acc': 2080, 'vel_acc': 0, 'hdg_acc': 0, 'yaw': 0}
[92] [GPS_RAW_INT] {'mavpackettype': 'GPS_RAW_INT', 'time_usec': 2973112047, 'fix_type': 3, 'lat': 462864933, 'lon': 213865795, 'alt': 122280, 'eph': 184, 'epv': 206, 'vel': 55, 'cog': 11800, 'satellites_visible': 14, 'alt_ellipsoid': 0, 'h_acc': 1840, 'v_acc': 2060, 'vel_acc': 0, 'hdg_acc': 0, 'yaw': 0}
[93] [GPS_RAW_INT] {'mavpackettype': 'GPS_RAW_INT', 'time_usec': 2974161181, 'fix_type': 3, 'lat': 462864903, 'lon': 213865918, 'alt': 122270, 'eph': 181, 'epv': 203, 'vel': 64, 'cog': 12370, 'satellites_visible': 14, 'alt_ellipsoid': 0, 'h_acc': 1810, 'v_acc': 2030, 'vel_acc': 0, 'hdg_acc': 0, 'yaw': 0}
[94] [GPS_RAW_INT] {'mavpackettype': 'GPS_RAW_INT', 'time_usec': 2974685211, 'fix_type': 3, 'lat': 462864894, 'lon': 213865957, 'alt': 122260, 'eph': 180, 'epv': 202, 'vel': 54, 'cog': 12120, 'satellites_visible': 13, 'alt_ellipsoid': 0, 'h_acc': 1800, 'v_acc': 2020, 'vel_acc': 0, 'hdg_acc': 0, 'yaw': 0}
[95] [GPS_RAW_INT] {'mavpackettype': 'GPS_RAW_INT', 'time_usec': 2975209667, 'fix_type': 3, 'lat': 462864889, 'lon': 213866014, 'alt': 122280, 'eph': 179, 'epv': 201, 'vel': 59, 'cog': 10630, 'satellites_visible': 13, 'alt_ellipsoid': 0, 'h_acc': 1790, 'v_acc': 2010, 'vel_acc': 0, 'hdg_acc': 0, 'yaw': 0}
[96] [GPS_RAW_INT] {'mavpackettype': 'GPS_RAW_INT', 'time_usec': 2975733917, 'fix_type': 3, 'lat': 462864887, 'lon': 213866041, 'alt': 122260, 'eph': 179, 'epv': 200, 'vel': 49, 'cog': 10960, 'satellites_visible': 13, 'alt_ellipsoid': 0, 'h_acc': 1790, 'v_acc': 2000, 'vel_acc': 0, 'hdg_acc': 0, 'yaw': 0}
[97] [GPS_RAW_INT] {'mavpackettype': 'GPS_RAW_INT', 'time_usec': 2976257324, 'fix_type': 3, 'lat': 462864876, 'lon': 213866081, 'alt': 122140, 'eph': 179, 'epv': 200, 'vel': 57, 'cog': 11300, 'satellites_visible': 13, 'alt_ellipsoid': 0, 'h_acc': 1790, 'v_acc': 2000, 'vel_acc': 0, 'hdg_acc': 0, 'yaw': 0}
[98] [GPS_RAW_INT] {'mavpackettype': 'GPS_RAW_INT', 'time_usec': 2976782041, 'fix_type': 3, 'lat': 462864880, 'lon': 213866118, 'alt': 122160, 'eph': 178, 'epv': 199, 'vel': 39, 'cog': 9670, 'satellites_visible': 13, 'alt_ellipsoid': 0, 'h_acc': 1780, 'v_acc': 1990, 'vel_acc': 0, 'hdg_acc': 0, 'yaw': 0}
[99] [GPS_RAW_INT] {'mavpackettype': 'GPS_RAW_INT', 'time_usec': 2977305819, 'fix_type': 3, 'lat': 462864876, 'lon': 213866136, 'alt': 122120, 'eph': 178, 'epv': 199, 'vel': 45, 'cog': 11220, 'satellites_visible': 13, 'alt_ellipsoid': 0, 'h_acc': 1780, 'v_acc': 1990, 'vel_acc': 0, 'hdg_acc': 0, 'yaw': 0}
[100] [GPS_RAW_INT] {'mavpackettype': 'GPS_RAW_INT', 'time_usec': 2977830938, 'fix_type': 3, 'lat': 462864879, 'lon': 213866168, 'alt': 121950, 'eph': 177, 'epv': 198, 'vel': 39, 'cog': 11220, 'satellites_visible': 14, 'alt_ellipsoid': 0, 'h_acc': 1770, 'v_acc': 1980, 'vel_acc': 0, 'hdg_acc': 0, 'yaw': 0}
[101] [GPS_RAW_INT] {'mavpackettype': 'GPS_RAW_INT', 'time_usec': 2978356023, 'fix_type': 3, 'lat': 462864879, 'lon': 213866191, 'alt': 121940, 'eph': 177, 'epv': 197, 'vel': 39, 'cog': 11220, 'satellites_visible': 14, 'alt_ellipsoid': 0, 'h_acc': 1770, 'v_acc': 1970, 'vel_acc': 0, 'hdg_acc': 0, 'yaw': 0}
[102] [GPS_RAW_INT] {'mavpackettype': 'GPS_RAW_INT', 'time_usec': 2978880307, 'fix_type': 3, 'lat': 462864878, 'lon': 213866222, 'alt': 121950, 'eph': 177, 'epv': 196, 'vel': 42, 'cog': 11080, 'satellites_visible': 13, 'alt_ellipsoid': 0, 'h_acc': 1770, 'v_acc': 1960, 'vel_acc': 0, 'hdg_acc': 0, 'yaw': 0}
[103] [GPS_RAW_INT] {'mavpackettype': 'GPS_RAW_INT', 'time_usec': 2979404310, 'fix_type': 3, 'lat': 462864883, 'lon': 213866251, 'alt': 121970, 'eph': 177, 'epv': 196, 'vel': 16, 'cog': 9830, 'satellites_visible': 14, 'alt_ellipsoid': 0, 'h_acc': 1770, 'v_acc': 1960, 'vel_acc': 0, 'hdg_acc': 0, 'yaw': 0}
[104] [GPS_RAW_INT] {'mavpackettype': 'GPS_RAW_INT', 'time_usec': 2979927080, 'fix_type': 3, 'lat': 462864890, 'lon': 213866266, 'alt': 121960, 'eph': 177, 'epv': 197, 'vel': 36, 'cog': 9830, 'satellites_visible': 14, 'alt_ellipsoid': 0, 'h_acc': 1770, 'v_acc': 1970, 'vel_acc': 0, 'hdg_acc': 0, 'yaw': 0}
[105] [GPS_RAW_INT] {'mavpackettype': 'GPS_RAW_INT', 'time_usec': 2980450683, 'fix_type': 3, 'lat': 462864897, 'lon': 213866296, 'alt': 122040, 'eph': 179, 'epv': 197, 'vel': 34, 'cog': 9830, 'satellites_visible': 14, 'alt_ellipsoid': 0, 'h_acc': 1790, 'v_acc': 1970, 'vel_acc': 0, 'hdg_acc': 0, 'yaw': 0}
[106] [GPS_RAW_INT] {'mavpackettype': 'GPS_RAW_INT', 'time_usec': 2980975821, 'fix_type': 3, 'lat': 462864900, 'lon': 213866318, 'alt': 122020, 'eph': 180, 'epv': 197, 'vel': 49, 'cog': 9830, 'satellites_visible': 14, 'alt_ellipsoid': 0, 'h_acc': 1800, 'v_acc': 1970, 'vel_acc': 0, 'hdg_acc': 0, 'yaw': 0}
[107] [GPS_RAW_INT] {'mavpackettype': 'GPS_RAW_INT', 'time_usec': 2982024148, 'fix_type': 3, 'lat': 462864904, 'lon': 213866373, 'alt': 122050, 'eph': 184, 'epv': 199, 'vel': 19, 'cog': 9830, 'satellites_visible': 14, 'alt_ellipsoid': 0, 'h_acc': 1840, 'v_acc': 1990, 'vel_acc': 0, 'hdg_acc': 0, 'yaw': 0}
[108] [GPS_RAW_INT] {'mavpackettype': 'GPS_RAW_INT', 'time_usec': 2982548310, 'fix_type': 3, 'lat': 462864901, 'lon': 213866381, 'alt': 122030, 'eph': 184, 'epv': 199, 'vel': 20, 'cog': 9830, 'satellites_visible': 14, 'alt_ellipsoid': 0, 'h_acc': 1840, 'v_acc': 1990, 'vel_acc': 0, 'hdg_acc': 0, 'yaw': 0}
[109] [GPS_RAW_INT] {'mavpackettype': 'GPS_RAW_INT', 'time_usec': 2983073282, 'fix_type': 3, 'lat': 462864886, 'lon': 213866404, 'alt': 122040, 'eph': 185, 'epv': 199, 'vel': 44, 'cog': 12960, 'satellites_visible': 14, 'alt_ellipsoid': 0, 'h_acc': 1850, 'v_acc': 1990, 'vel_acc': 0, 'hdg_acc': 0, 'yaw': 0}
[110] [GPS_RAW_INT] {'mavpackettype': 'GPS_RAW_INT', 'time_usec': 2983596965, 'fix_type': 3, 'lat': 462864855, 'lon': 213866403, 'alt': 121960, 'eph': 186, 'epv': 200, 'vel': 47, 'cog': 16890, 'satellites_visible': 14, 'alt_ellipsoid': 0, 'h_acc': 1860, 'v_acc': 2000, 'vel_acc': 0, 'hdg_acc': 0, 'yaw': 0}
[111] [GPS_RAW_INT] {'mavpackettype': 'GPS_RAW_INT', 'time_usec': 2984120150, 'fix_type': 3, 'lat': 462864834, 'lon': 213866403, 'alt': 121970, 'eph': 187, 'epv': 200, 'vel': 54, 'cog': 17290, 'satellites_visible': 14, 'alt_ellipsoid': 0, 'h_acc': 1870, 'v_acc': 2000, 'vel_acc': 0, 'hdg_acc': 0, 'yaw': 0}
[112] [GPS_RAW_INT] {'mavpackettype': 'GPS_RAW_INT', 'time_usec': 2984644567, 'fix_type': 3, 'lat': 462864797, 'lon': 213866423, 'alt': 121970, 'eph': 187, 'epv': 200, 'vel': 66, 'cog': 16150, 'satellites_visible': 14, 'alt_ellipsoid': 0, 'h_acc': 1870, 'v_acc': 2000, 'vel_acc': 0, 'hdg_acc': 0, 'yaw': 0}
[113] [GPS_RAW_INT] {'mavpackettype': 'GPS_RAW_INT', 'time_usec': 2985168495, 'fix_type': 3, 'lat': 462864779, 'lon': 213866424, 'alt': 121910, 'eph': 187, 'epv': 200, 'vel': 45, 'cog': 17370, 'satellites_visible': 14, 'alt_ellipsoid': 0, 'h_acc': 1870, 'v_acc': 2000, 'vel_acc': 0, 'hdg_acc': 0, 'yaw': 0}
