[GPS_RAW_INT] {'mavpackettype': 'GPS_RAW_INT', 'time_usec': 515362878, 'fix_type': 3, 'lat': 462880963, 'lon': 213603757, 'alt': 109320, 'eph': 86, 'epv': 114, 'vel': 71, 'cog': 19950, 'satellites_visible': 14, 'alt_ellipsoid': 0, 'h_acc': 860, 'v_acc': 1140, 'vel_acc': 0, 'hdg_acc': 0, 'yaw': 0}
[GPS_RAW_INT] {'mavpackettype': 'GPS_RAW_INT', 'time_usec': 515892959, 'fix_type': 3, 'lat': 462880930, 'lon': 213603709, 'alt': 109530, 'eph': 87, 'epv': 114, 'vel': 97, 'cog': 21030, 'satellites_visible': 14, 'alt_ellipsoid': 0, 'h_acc': 870, 'v_acc': 1140, 'vel_acc': 0, 'hdg_acc': 0, 'yaw': 0}
[GPS_RAW_INT] {'mavpackettype': 'GPS_RAW_INT', 'time_usec': 516422602, 'fix_type': 3, 'lat': 462880906, 'lon': 213603691, 'alt': 109590, 'eph': 88, 'epv': 115, 'vel': 88, 'cog': 20610, 'satellites_visible': 14, 'alt_ellipsoid': 0, 'h_acc': 880, 'v_acc': 1150, 'vel_acc': 0, 'hdg_acc': 0, 'yaw': 0}
[GPS_RAW_INT] {'mavpackettype': 'GPS_RAW_INT', 'time_usec': 517480692, 'fix_type': 3, 'lat': 462880816, 'lon': 213603618, 'alt': 109750, 'eph': 94, 'epv': 119, 'vel': 110, 'cog': 20880, 'satellites_visible': 14, 'alt_ellipsoid': 0, 'h_acc': 940, 'v_acc': 1190, 'vel_acc': 0, 'hdg_acc': 0, 'yaw': 0}
[GPS_RAW_INT] {'mavpackettype': 'GPS_RAW_INT', 'time_usec': 518009514, 'fix_type': 3, 'lat': 462880790, 'lon': 213603601, 'alt': 109770, 'eph': 96, 'epv': 121, 'vel': 70, 'cog': 20690, 'satellites_visible': 14, 'alt_ellipsoid': 0, 'h_acc': 960, 'v_acc': 1210, 'vel_acc': 0, 'hdg_acc': 0, 'yaw': 0}
[GPS_RAW_INT] {'mavpackettype': 'GPS_RAW_INT', 'time_usec': 518537826, 'fix_type': 3, 'lat': 462880748, 'lon': 213603533, 'alt': 109840, 'eph': 99, 'epv': 124, 'vel': 110, 'cog': 22500, 'satellites_visible': 14, 'alt_ellipsoid': 0, 'h_acc': 990, 'v_acc': 1240, 'vel_acc': 0, 'hdg_acc': 0, 'yaw': 0}
[GPS_RAW_INT] {'mavpackettype': 'GPS_RAW_INT', 'time_usec': 519066327, 'fix_type': 3, 'lat': 462880711, 'lon': 213603485, 'alt': 109820, 'eph': 102, 'epv': 126, 'vel': 97, 'cog': 22540, 'satellites_visible': 14, 'alt_ellipsoid': 0, 'h_acc': 1020, 'v_acc': 1260, 'vel_acc': 0, 'hdg_acc': 0, 'yaw': 0}
[GPS_RAW_INT] {'mavpackettype': 'GPS_RAW_INT', 'time_usec': 519595292, 'fix_type': 3, 'lat': 462880687, 'lon': 213603436, 'alt': 109780, 'eph': 105, 'epv': 128, 'vel': 128, 'cog': 23260, 'satellites_visible': 13, 'alt_ellipsoid': 0, 'h_acc': 1050, 'v_acc': 1280, 'vel_acc': 0, 'hdg_acc': 0, 'yaw': 0}
[GPS_RAW_INT] {'mavpackettype': 'GPS_RAW_INT', 'time_usec': 520124313, 'fix_type': 3, 'lat': 462880654, 'lon': 213603382, 'alt': 109810, 'eph': 108, 'epv': 130, 'vel': 85, 'cog': 22840, 'satellites_visible': 14, 'alt_ellipsoid': 0, 'h_acc': 1080, 'v_acc': 1300, 'vel_acc': 0, 'hdg_acc': 0, 'yaw': 0}
[GPS_RAW_INT] {'mavpackettype': 'GPS_RAW_INT', 'time_usec': 520653590, 'fix_type': 3, 'lat': 462880642, 'lon': 213603345, 'alt': 109830, 'eph': 109, 'epv': 131, 'vel': 79, 'cog': 23970, 'satellites_visible': 14, 'alt_ellipsoid': 0, 'h_acc': 1090, 'v_acc': 1310, 'vel_acc': 0, 'hdg_acc': 0, 'yaw': 0}
[GPS_RAW_INT] {'mavpackettype': 'GPS_RAW_INT', 'time_usec': 521183601, 'fix_type': 3, 'lat': 462880617, 'lon': 213603256, 'alt': 109910, 'eph': 113, 'epv': 134, 'vel': 114, 'cog': 24370, 'satellites_visible': 14, 'alt_ellipsoid': 0, 'h_acc': 1130, 'v_acc': 1340, 'vel_acc': 0, 'hdg_acc': 0, 'yaw': 0}
[GPS_RAW_INT] {'mavpackettype': 'GPS_RAW_INT', 'time_usec': 521712891, 'fix_type': 3, 'lat': 462880611, 'lon': 213603196, 'alt': 109950, 'eph': 116, 'epv': 136, 'vel': 100, 'cog': 25330, 'satellites_visible': 14, 'alt_ellipsoid': 0, 'h_acc': 1160, 'v_acc': 1360, 'vel_acc': 0, 'hdg_acc': 0, 'yaw': 0}
[GPS_RAW_INT] {'mavpackettype': 'GPS_RAW_INT', 'time_usec': 522241833, 'fix_type': 3, 'lat': 462880606, 'lon': 213603154, 'alt': 110070, 'eph': 118, 'epv': 138, 'vel': 85, 'cog': 25210, 'satellites_visible': 14, 'alt_ellipsoid': 0, 'h_acc': 1180, 'v_acc': 1380, 'vel_acc': 0, 'hdg_acc': 0, 'yaw': 0}
[GPS_RAW_INT] {'mavpackettype': 'GPS_RAW_INT', 'time_usec': 522770822, 'fix_type': 3, 'lat': 462880595, 'lon': 213603108, 'alt': 110030, 'eph': 121, 'epv': 140, 'vel': 59, 'cog': 24660, 'satellites_visible': 14, 'alt_ellipsoid': 0, 'h_acc': 1210, 'v_acc': 1400, 'vel_acc': 0, 'hdg_acc': 0, 'yaw': 0}
[GPS_RAW_INT] {'mavpackettype': 'GPS_RAW_INT', 'time_usec': 523299400, 'fix_type': 3, 'lat': 462880600, 'lon': 213603058, 'alt': 110070, 'eph': 123, 'epv': 142, 'vel': 68, 'cog': 26710, 'satellites_visible': 14, 'alt_ellipsoid': 0, 'h_acc': 1230, 'v_acc': 1420, 'vel_acc': 0, 'hdg_acc': 0, 'yaw': 0}
[GPS_RAW_INT] {'mavpackettype': 'GPS_RAW_INT', 'time_usec': 523828207, 'fix_type': 3, 'lat': 462880597, 'lon': 213603048, 'alt': 110100, 'eph': 124, 'epv': 143, 'vel': 11, 'cog': 26710, 'satellites_visible': 14, 'alt_ellipsoid': 0, 'h_acc': 1240, 'v_acc': 1430, 'vel_acc': 0, 'hdg_acc': 0, 'yaw': 0}
[GPS_RAW_INT] {'mavpackettype': 'GPS_RAW_INT', 'time_usec': 524357254, 'fix_type': 3, 'lat': 462880596, 'lon': 213603045, 'alt': 110200, 'eph': 125, 'epv': 144, 'vel': 3, 'cog': 26710, 'satellites_visible': 14, 'alt_ellipsoid': 0, 'h_acc': 1250, 'v_acc': 1440, 'vel_acc': 0, 'hdg_acc': 0, 'yaw': 0}
[GPS_RAW_INT] {'mavpackettype': 'GPS_RAW_INT', 'time_usec': 524885809, 'fix_type': 3, 'lat': 462880598, 'lon': 213603042, 'alt': 110320, 'eph': 125, 'epv': 144, 'vel': 2, 'cog': 26710, 'satellites_visible': 14, 'alt_ellipsoid': 0, 'h_acc': 1250, 'v_acc': 1440, 'vel_acc': 0, 'hdg_acc': 0, 'yaw': 0}
[GPS_RAW_INT] {'mavpackettype': 'GPS_RAW_INT', 'time_usec': 525415674, 'fix_type': 3, 'lat': 462880598, 'lon': 213603038, 'alt': 110390, 'eph': 126, 'epv': 145, 'vel': 4, 'cog': 26710, 'satellites_visible': 14, 'alt_ellipsoid': 0, 'h_acc': 1260, 'v_acc': 1450, 'vel_acc': 0, 'hdg_acc': 0, 'yaw': 0}
[GPS_RAW_INT] {'mavpackettype': 'GPS_RAW_INT', 'time_usec': 525945017, 'fix_type': 3, 'lat': 462880600, 'lon': 213603033, 'alt': 110500, 'eph': 126, 'epv': 145, 'vel': 3, 'cog': 26710, 'satellites_visible': 14, 'alt_ellipsoid': 0, 'h_acc': 1260, 'v_acc': 1450, 'vel_acc': 0, 'hdg_acc': 0, 'yaw': 0}
[GPS_RAW_INT] {'mavpackettype': 'GPS_RAW_INT', 'time_usec': 526474572, 'fix_type': 3, 'lat': 462880599, 'lon': 213603027, 'alt': 110620, 'eph': 127, 'epv': 146, 'vel': 9, 'cog': 26710, 'satellites_visible': 14, 'alt_ellipsoid': 0, 'h_acc': 1270, 'v_acc': 1460, 'vel_acc': 0, 'hdg_acc': 0, 'yaw': 0}
[GPS_RAW_INT] {'mavpackettype': 'GPS_RAW_INT', 'time_usec': 527003592, 'fix_type': 3, 'lat': 462880601, 'lon': 213603024, 'alt': 110680, 'eph': 127, 'epv': 146, 'vel': 7, 'cog': 26710, 'satellites_visible': 14, 'alt_ellipsoid': 0, 'h_acc': 1270, 'v_acc': 1460, 'vel_acc': 0, 'hdg_acc': 0, 'yaw': 0}
[GPS_RAW_INT] {'mavpackettype': 'GPS_RAW_INT', 'time_usec': 527532248, 'fix_type': 3, 'lat': 462880599, 'lon': 213603018, 'alt': 110790, 'eph': 127, 'epv': 147, 'vel': 3, 'cog': 26710, 'satellites_visible': 14, 'alt_ellipsoid': 0, 'h_acc': 1270, 'v_acc': 1470, 'vel_acc': 0, 'hdg_acc': 0, 'yaw': 0}
[GPS_RAW_INT] {'mavpackettype': 'GPS_RAW_INT', 'time_usec': 528590367, 'fix_type': 3, 'lat': 462880604, 'lon': 213603024, 'alt': 110900, 'eph': 128, 'epv': 149, 'vel': 6, 'cog': 26710, 'satellites_visible': 13, 'alt_ellipsoid': 0, 'h_acc': 1280, 'v_acc': 1490, 'vel_acc': 0, 'hdg_acc': 0, 'yaw': 0}
[GPS_RAW_INT] {'mavpackettype': 'GPS_RAW_INT', 'time_usec': 529119721, 'fix_type': 3, 'lat': 462880602, 'lon': 213603030, 'alt': 111060, 'eph': 127, 'epv': 150, 'vel': 4, 'cog': 26710, 'satellites_visible': 13, 'alt_ellipsoid': 0, 'h_acc': 1270, 'v_acc': 1500, 'vel_acc': 0, 'hdg_acc': 0, 'yaw': 0}
[GPS_RAW_INT] {'mavpackettype': 'GPS_RAW_INT', 'time_usec': 529650011, 'fix_type': 3, 'lat': 462880601, 'lon': 213603031, 'alt': 111160, 'eph': 127, 'epv': 150, 'vel': 6, 'cog': 26710, 'satellites_visible': 13, 'alt_ellipsoid': 0, 'h_acc': 1270, 'v_acc': 1500, 'vel_acc': 0, 'hdg_acc': 0, 'yaw': 0}
[GPS_RAW_INT] {'mavpackettype': 'GPS_RAW_INT', 'time_usec': 530178969, 'fix_type': 3, 'lat': 462880601, 'lon': 213603033, 'alt': 111310, 'eph': 127, 'epv': 151, 'vel': 6, 'cog': 26710, 'satellites_visible': 13, 'alt_ellipsoid': 0, 'h_acc': 1270, 'v_acc': 1510, 'vel_acc': 0, 'hdg_acc': 0, 'yaw': 0}
[GPS_RAW_INT] {'mavpackettype': 'GPS_RAW_INT', 'time_usec': 530707744, 'fix_type': 3, 'lat': 462880600, 'lon': 213603030, 'alt': 111460, 'eph': 127, 'epv': 151, 'vel': 4, 'cog': 26710, 'satellites_visible': 13, 'alt_ellipsoid': 0, 'h_acc': 1270, 'v_acc': 1510, 'vel_acc': 0, 'hdg_acc': 0, 'yaw': 0}
[GPS_RAW_INT] {'mavpackettype': 'GPS_RAW_INT', 'time_usec': 531237311, 'fix_type': 3, 'lat': 462880602, 'lon': 213603029, 'alt': 111560, 'eph': 127, 'epv': 151, 'vel': 2, 'cog': 26710, 'satellites_visible': 13, 'alt_ellipsoid': 0, 'h_acc': 1270, 'v_acc': 1510, 'vel_acc': 0, 'hdg_acc': 0, 'yaw': 0}
[GPS_RAW_INT] {'mavpackettype': 'GPS_RAW_INT', 'time_usec': 531767240, 'fix_type': 3, 'lat': 462880602, 'lon': 213603027, 'alt': 111720, 'eph': 127, 'epv': 152, 'vel': 3, 'cog': 26710, 'satellites_visible': 14, 'alt_ellipsoid': 0, 'h_acc': 1270, 'v_acc': 1520, 'vel_acc': 0, 'hdg_acc': 0, 'yaw': 0}
[GPS_RAW_INT] {'mavpackettype': 'GPS_RAW_INT', 'time_usec': 532295799, 'fix_type': 3, 'lat': 462880609, 'lon': 213603016, 'alt': 111780, 'eph': 128, 'epv': 153, 'vel': 9, 'cog': 26710, 'satellites_visible': 14, 'alt_ellipsoid': 0, 'h_acc': 1280, 'v_acc': 1530, 'vel_acc': 0, 'hdg_acc': 0, 'yaw': 0}
[GPS_RAW_INT] {'mavpackettype': 'GPS_RAW_INT', 'time_usec': 532824245, 'fix_type': 3, 'lat': 462880595, 'lon': 213603000, 'alt': 111900, 'eph': 130, 'epv': 155, 'vel': 56, 'cog': 26710, 'satellites_visible': 14, 'alt_ellipsoid': 0, 'h_acc': 1300, 'v_acc': 1550, 'vel_acc': 0, 'hdg_acc': 0, 'yaw': 0}
[GPS_RAW_INT] {'mavpackettype': 'GPS_RAW_INT', 'time_usec': 533352204, 'fix_type': 3, 'lat': 462880610, 'lon': 213603003, 'alt': 112120, 'eph': 132, 'epv': 158, 'vel': 49, 'cog': 26710, 'satellites_visible': 14, 'alt_ellipsoid': 0, 'h_acc': 1320, 'v_acc': 1580, 'vel_acc': 0, 'hdg_acc': 0, 'yaw': 0}
[GPS_RAW_INT] {'mavpackettype': 'GPS_RAW_INT', 'time_usec': 533881987, 'fix_type': 3, 'lat': 462880617, 'lon': 213603003, 'alt': 112260, 'eph': 134, 'epv': 160, 'vel': 7, 'cog': 26710, 'satellites_visible': 14, 'alt_ellipsoid': 0, 'h_acc': 1340, 'v_acc': 1600, 'vel_acc': 0, 'hdg_acc': 0, 'yaw': 0}
[GPS_RAW_INT] {'mavpackettype': 'GPS_RAW_INT', 'time_usec': 534410746, 'fix_type': 3, 'lat': 462880601, 'lon': 213602992, 'alt': 112420, 'eph': 137, 'epv': 164, 'vel': 38, 'cog': 26710, 'satellites_visible': 14, 'alt_ellipsoid': 0, 'h_acc': 1370, 'v_acc': 1640, 'vel_acc': 0, 'hdg_acc': 0, 'yaw': 0}
[GPS_RAW_INT] {'mavpackettype': 'GPS_RAW_INT', 'time_usec': 534938837, 'fix_type': 3, 'lat': 462880605, 'lon': 213602996, 'alt': 112230, 'eph': 136, 'epv': 164, 'vel': 2, 'cog': 26710, 'satellites_visible': 14, 'alt_ellipsoid': 0, 'h_acc': 1360, 'v_acc': 1640, 'vel_acc': 0, 'hdg_acc': 0, 'yaw': 0}
[GPS_RAW_INT] {'mavpackettype': 'GPS_RAW_INT', 'time_usec': 535466246, 'fix_type': 3, 'lat': 462880609, 'lon': 213602996, 'alt': 112210, 'eph': 136, 'epv': 165, 'vel': 20, 'cog': 26710, 'satellites_visible': 14, 'alt_ellipsoid': 0, 'h_acc': 1360, 'v_acc': 1650, 'vel_acc': 0, 'hdg_acc': 0, 'yaw': 0}
[GPS_RAW_INT] {'mavpackettype': 'GPS_RAW_INT', 'time_usec': 535994386, 'fix_type': 3, 'lat': 462880620, 'lon': 213602987, 'alt': 112150, 'eph': 138, 'epv': 167, 'vel': 34, 'cog': 26710, 'satellites_visible': 14, 'alt_ellipsoid': 0, 'h_acc': 1380, 'v_acc': 1670, 'vel_acc': 0, 'hdg_acc': 0, 'yaw': 0}
[GPS_RAW_INT] {'mavpackettype': 'GPS_RAW_INT', 'time_usec': 536523506, 'fix_type': 3, 'lat': 462880636, 'lon': 213602969, 'alt': 112170, 'eph': 140, 'epv': 170, 'vel': 33, 'cog': 26710, 'satellites_visible': 14, 'alt_ellipsoid': 0, 'h_acc': 1400, 'v_acc': 1700, 'vel_acc': 0, 'hdg_acc': 0, 'yaw': 0}
[GPS_RAW_INT] {'mavpackettype': 'GPS_RAW_INT', 'time_usec': 537054139, 'fix_type': 3, 'lat': 462880647, 'lon': 213602951, 'alt': 112060, 'eph': 143, 'epv': 173, 'vel': 66, 'cog': 26710, 'satellites_visible': 13, 'alt_ellipsoid': 0, 'h_acc': 1430, 'v_acc': 1730, 'vel_acc': 0, 'hdg_acc': 0, 'yaw': 0}
[GPS_RAW_INT] {'mavpackettype': 'GPS_RAW_INT', 'time_usec': 537583133, 'fix_type': 3, 'lat': 462880669, 'lon': 213602906, 'alt': 112040, 'eph': 147, 'epv': 179, 'vel': 102, 'cog': 29230, 'satellites_visible': 13, 'alt_ellipsoid': 0, 'h_acc': 1470, 'v_acc': 1790, 'vel_acc': 0, 'hdg_acc': 0, 'yaw': 0}
[GPS_RAW_INT] {'mavpackettype': 'GPS_RAW_INT', 'time_usec': 538112617, 'fix_type': 3, 'lat': 462880686, 'lon': 213602867, 'alt': 111960, 'eph': 152, 'epv': 186, 'vel': 41, 'cog': 31440, 'satellites_visible': 14, 'alt_ellipsoid': 0, 'h_acc': 1520, 'v_acc': 1860, 'vel_acc': 0, 'hdg_acc': 0, 'yaw': 0}
[GPS_RAW_INT] {'mavpackettype': 'GPS_RAW_INT', 'time_usec': 538641716, 'fix_type': 3, 'lat': 462880675, 'lon': 213602861, 'alt': 111970, 'eph': 154, 'epv': 191, 'vel': 13, 'cog': 29410, 'satellites_visible': 14, 'alt_ellipsoid': 0, 'h_acc': 1540, 'v_acc': 1910, 'vel_acc': 0, 'hdg_acc': 0, 'yaw': 0}
[GPS_RAW_INT] {'mavpackettype': 'GPS_RAW_INT', 'time_usec': 539170605, 'fix_type': 3, 'lat': 462880673, 'lon': 213602862, 'alt': 111940, 'eph': 156, 'epv': 197, 'vel': 1, 'cog': 29410, 'satellites_visible': 14, 'alt_ellipsoid': 0, 'h_acc': 1560, 'v_acc': 1970, 'vel_acc': 0, 'hdg_acc': 0, 'yaw': 0}
[GPS_RAW_INT] {'mavpackettype': 'GPS_RAW_INT', 'time_usec': 539699045, 'fix_type': 3, 'lat': 462880671, 'lon': 213602868, 'alt': 111900, 'eph': 157, 'epv': 200, 'vel': 5, 'cog': 29410, 'satellites_visible': 14, 'alt_ellipsoid': 0, 'h_acc': 1570, 'v_acc': 2000, 'vel_acc': 0, 'hdg_acc': 0, 'yaw': 0}
[GPS_RAW_INT] {'mavpackettype': 'GPS_RAW_INT', 'time_usec': 540227572, 'fix_type': 3, 'lat': 462880667, 'lon': 213602874, 'alt': 111960, 'eph': 158, 'epv': 205, 'vel': 2, 'cog': 29410, 'satellites_visible': 14, 'alt_ellipsoid': 0, 'h_acc': 1580, 'v_acc': 2050, 'vel_acc': 0, 'hdg_acc': 0, 'yaw': 0}
[GPS_RAW_INT] {'mavpackettype': 'GPS_RAW_INT', 'time_usec': 540755832, 'fix_type': 3, 'lat': 462880663, 'lon': 213602871, 'alt': 111710, 'eph': 160, 'epv': 210, 'vel': 0, 'cog': 29410, 'satellites_visible': 14, 'alt_ellipsoid': 0, 'h_acc': 1600, 'v_acc': 2100, 'vel_acc': 0, 'hdg_acc': 0, 'yaw': 0}
[GPS_RAW_INT] {'mavpackettype': 'GPS_RAW_INT', 'time_usec': 541284475, 'fix_type': 3, 'lat': 462880652, 'lon': 213602886, 'alt': 111670, 'eph': 162, 'epv': 215, 'vel': 26, 'cog': 29410, 'satellites_visible': 14, 'alt_ellipsoid': 0, 'h_acc': 1620, 'v_acc': 2150, 'vel_acc': 0, 'hdg_acc': 0, 'yaw': 0}
[GPS_RAW_INT] {'mavpackettype': 'GPS_RAW_INT', 'time_usec': 541813110, 'fix_type': 3, 'lat': 462880634, 'lon': 213602898, 'alt': 111550, 'eph': 167, 'epv': 223, 'vel': 27, 'cog': 29410, 'satellites_visible': 14, 'alt_ellipsoid': 0, 'h_acc': 1670, 'v_acc': 2230, 'vel_acc': 0, 'hdg_acc': 0, 'yaw': 0}
[GPS_RAW_INT] {'mavpackettype': 'GPS_RAW_INT', 'time_usec': 542342129, 'fix_type': 3, 'lat': 462880632, 'lon': 213602887, 'alt': 111220, 'eph': 168, 'epv': 227, 'vel': 22, 'cog': 29410, 'satellites_visible': 13, 'alt_ellipsoid': 0, 'h_acc': 1680, 'v_acc': 2270, 'vel_acc': 0, 'hdg_acc': 0, 'yaw': 0}
[GPS_RAW_INT] {'mavpackettype': 'GPS_RAW_INT', 'time_usec': 542870970, 'fix_type': 3, 'lat': 462880630, 'lon': 213602899, 'alt': 111020, 'eph': 171, 'epv': 232, 'vel': 5, 'cog': 29410, 'satellites_visible': 13, 'alt_ellipsoid': 0, 'h_acc': 1710, 'v_acc': 2320, 'vel_acc': 0, 'hdg_acc': 0, 'yaw': 0}
[GPS_RAW_INT] {'mavpackettype': 'GPS_RAW_INT', 'time_usec': 543399694, 'fix_type': 3, 'lat': 462880622, 'lon': 213602933, 'alt': 111010, 'eph': 175, 'epv': 236, 'vel': 20, 'cog': 29410, 'satellites_visible': 13, 'alt_ellipsoid': 0, 'h_acc': 1750, 'v_acc': 2360, 'vel_acc': 0, 'hdg_acc': 0, 'yaw': 0}
[GPS_RAW_INT] {'mavpackettype': 'GPS_RAW_INT', 'time_usec': 544457328, 'fix_type': 3, 'lat': 462880633, 'lon': 213602950, 'alt': 111000, 'eph': 176, 'epv': 235, 'vel': 3, 'cog': 29410, 'satellites_visible': 13, 'alt_ellipsoid': 0, 'h_acc': 1760, 'v_acc': 2350, 'vel_acc': 0, 'hdg_acc': 0, 'yaw': 0}
[GPS_RAW_INT] {'mavpackettype': 'GPS_RAW_INT', 'time_usec': 544987335, 'fix_type': 3, 'lat': 462880629, 'lon': 213602968, 'alt': 111090, 'eph': 176, 'epv': 235, 'vel': 29, 'cog': 29410, 'satellites_visible': 13, 'alt_ellipsoid': 0, 'h_acc': 1760, 'v_acc': 2350, 'vel_acc': 0, 'hdg_acc': 0, 'yaw': 0}
[GPS_RAW_INT] {'mavpackettype': 'GPS_RAW_INT', 'time_usec': 546044295, 'fix_type': 3, 'lat': 462880624, 'lon': 213602969, 'alt': 111060, 'eph': 177, 'epv': 235, 'vel': 5, 'cog': 29410, 'satellites_visible': 13, 'alt_ellipsoid': 0, 'h_acc': 1770, 'v_acc': 2350, 'vel_acc': 0, 'hdg_acc': 0, 'yaw': 0}
[GPS_RAW_INT] {'mavpackettype': 'GPS_RAW_INT', 'time_usec': 546573239, 'fix_type': 3, 'lat': 462880626, 'lon': 213602974, 'alt': 111060, 'eph': 178, 'epv': 236, 'vel': 13, 'cog': 29410, 'satellites_visible': 14, 'alt_ellipsoid': 0, 'h_acc': 1780, 'v_acc': 2360, 'vel_acc': 0, 'hdg_acc': 0, 'yaw': 0}
[GPS_RAW_INT] {'mavpackettype': 'GPS_RAW_INT', 'time_usec': 547101387, 'fix_type': 3, 'lat': 462880627, 'lon': 213602973, 'alt': 111090, 'eph': 178, 'epv': 237, 'vel': 8, 'cog': 29410, 'satellites_visible': 14, 'alt_ellipsoid': 0, 'h_acc': 1780, 'v_acc': 2370, 'vel_acc': 0, 'hdg_acc': 0, 'yaw': 0}
[GPS_RAW_INT] {'mavpackettype': 'GPS_RAW_INT', 'time_usec': 547630207, 'fix_type': 3, 'lat': 462880625, 'lon': 213602971, 'alt': 111130, 'eph': 178, 'epv': 237, 'vel': 4, 'cog': 29410, 'satellites_visible': 14, 'alt_ellipsoid': 0, 'h_acc': 1780, 'v_acc': 2370, 'vel_acc': 0, 'hdg_acc': 0, 'yaw': 0}
[GPS_RAW_INT] {'mavpackettype': 'GPS_RAW_INT', 'time_usec': 548159387, 'fix_type': 3, 'lat': 462880637, 'lon': 213602978, 'alt': 111230, 'eph': 179, 'epv': 237, 'vel': 14, 'cog': 29410, 'satellites_visible': 14, 'alt_ellipsoid': 0, 'h_acc': 1790, 'v_acc': 2370, 'vel_acc': 0, 'hdg_acc': 0, 'yaw': 0}
[GPS_RAW_INT] {'mavpackettype': 'GPS_RAW_INT', 'time_usec': 548688605, 'fix_type': 3, 'lat': 462880636, 'lon': 213602977, 'alt': 111320, 'eph': 179, 'epv': 237, 'vel': 22, 'cog': 29410, 'satellites_visible': 14, 'alt_ellipsoid': 0, 'h_acc': 1790, 'v_acc': 2370, 'vel_acc': 0, 'hdg_acc': 0, 'yaw': 0}
[GPS_RAW_INT] {'mavpackettype': 'GPS_RAW_INT', 'time_usec': 549217475, 'fix_type': 3, 'lat': 462880629, 'lon': 213602989, 'alt': 111340, 'eph': 179, 'epv': 238, 'vel': 37, 'cog': 24420, 'satellites_visible': 14, 'alt_ellipsoid': 0, 'h_acc': 1790, 'v_acc': 2380, 'vel_acc': 0, 'hdg_acc': 0, 'yaw': 0}
[GPS_RAW_INT] {'mavpackettype': 'GPS_RAW_INT', 'time_usec': 549746490, 'fix_type': 3, 'lat': 462880635, 'lon': 213603015, 'alt': 111520, 'eph': 173, 'epv': 233, 'vel': 35, 'cog': 20850, 'satellites_visible': 14, 'alt_ellipsoid': 0, 'h_acc': 1730, 'v_acc': 2330, 'vel_acc': 0, 'hdg_acc': 0, 'yaw': 0}
[GPS_RAW_INT] {'mavpackettype': 'GPS_RAW_INT', 'time_usec': 550276503, 'fix_type': 3, 'lat': 462880624, 'lon': 213603017, 'alt': 111600, 'eph': 172, 'epv': 231, 'vel': 31, 'cog': 18140, 'satellites_visible': 14, 'alt_ellipsoid': 0, 'h_acc': 1720, 'v_acc': 2310, 'vel_acc': 0, 'hdg_acc': 0, 'yaw': 0}
[GPS_RAW_INT] {'mavpackettype': 'GPS_RAW_INT', 'time_usec': 550805926, 'fix_type': 3, 'lat': 462880612, 'lon': 213603026, 'alt': 111830, 'eph': 171, 'epv': 230, 'vel': 36, 'cog': 14950, 'satellites_visible': 14, 'alt_ellipsoid': 0, 'h_acc': 1710, 'v_acc': 2300, 'vel_acc': 0, 'hdg_acc': 0, 'yaw': 0}
[GPS_RAW_INT] {'mavpackettype': 'GPS_RAW_INT', 'time_usec': 551333706, 'fix_type': 3, 'lat': 462880598, 'lon': 213602984, 'alt': 112110, 'eph': 171, 'epv': 228, 'vel': 46, 'cog': 19770, 'satellites_visible': 14, 'alt_ellipsoid': 0, 'h_acc': 1710, 'v_acc': 2280, 'vel_acc': 0, 'hdg_acc': 0, 'yaw': 0}
[GPS_RAW_INT] {'mavpackettype': 'GPS_RAW_INT', 'time_usec': 551864646, 'fix_type': 3, 'lat': 462880592, 'lon': 213602978, 'alt': 112120, 'eph': 171, 'epv': 228, 'vel': 6, 'cog': 19770, 'satellites_visible': 14, 'alt_ellipsoid': 0, 'h_acc': 1710, 'v_acc': 2280, 'vel_acc': 0, 'hdg_acc': 0, 'yaw': 0}
[GPS_RAW_INT] {'mavpackettype': 'GPS_RAW_INT', 'time_usec': 552393968, 'fix_type': 3, 'lat': 462880590, 'lon': 213602978, 'alt': 112310, 'eph': 171, 'epv': 227, 'vel': 21, 'cog': 19770, 'satellites_visible': 14, 'alt_ellipsoid': 0, 'h_acc': 1710, 'v_acc': 2270, 'vel_acc': 0, 'hdg_acc': 0, 'yaw': 0}
[GPS_RAW_INT] {'mavpackettype': 'GPS_RAW_INT', 'time_usec': 552923393, 'fix_type': 3, 'lat': 462880584, 'lon': 213602969, 'alt': 112440, 'eph': 169, 'epv': 226, 'vel': 8, 'cog': 19770, 'satellites_visible': 14, 'alt_ellipsoid': 0, 'h_acc': 1690, 'v_acc': 2260, 'vel_acc': 0, 'hdg_acc': 0, 'yaw': 0}
[GPS_RAW_INT] {'mavpackettype': 'GPS_RAW_INT', 'time_usec': 553452821, 'fix_type': 3, 'lat': 462880568, 'lon': 213602946, 'alt': 112660, 'eph': 168, 'epv': 224, 'vel': 13, 'cog': 19770, 'satellites_visible': 14, 'alt_ellipsoid': 0, 'h_acc': 1680, 'v_acc': 2240, 'vel_acc': 0, 'hdg_acc': 0, 'yaw': 0}
[GPS_RAW_INT] {'mavpackettype': 'GPS_RAW_INT', 'time_usec': 553982538, 'fix_type': 3, 'lat': 462880557, 'lon': 213602950, 'alt': 112540, 'eph': 166, 'epv': 222, 'vel': 9, 'cog': 19770, 'satellites_visible': 14, 'alt_ellipsoid': 0, 'h_acc': 1660, 'v_acc': 2220, 'vel_acc': 0, 'hdg_acc': 0, 'yaw': 0}
[GPS_RAW_INT] {'mavpackettype': 'GPS_RAW_INT', 'time_usec': 554513009, 'fix_type': 3, 'lat': 462880556, 'lon': 213602955, 'alt': 112470, 'eph': 165, 'epv': 221, 'vel': 14, 'cog': 19770, 'satellites_visible': 13, 'alt_ellipsoid': 0, 'h_acc': 1650, 'v_acc': 2210, 'vel_acc': 0, 'hdg_acc': 0, 'yaw': 0}
[GPS_RAW_INT] {'mavpackettype': 'GPS_RAW_INT', 'time_usec': 555041599, 'fix_type': 3, 'lat': 462880550, 'lon': 213602955, 'alt': 112220, 'eph': 165, 'epv': 219, 'vel': 6, 'cog': 19770, 'satellites_visible': 13, 'alt_ellipsoid': 0, 'h_acc': 1650, 'v_acc': 2190, 'vel_acc': 0, 'hdg_acc': 0, 'yaw': 0}
[GPS_RAW_INT] {'mavpackettype': 'GPS_RAW_INT', 'time_usec': 555570506, 'fix_type': 3, 'lat': 462880547, 'lon': 213602956, 'alt': 112130, 'eph': 165, 'epv': 220, 'vel': 12, 'cog': 19770, 'satellites_visible': 13, 'alt_ellipsoid': 0, 'h_acc': 1650, 'v_acc': 2200, 'vel_acc': 0, 'hdg_acc': 0, 'yaw': 0}
[GPS_RAW_INT] {'mavpackettype': 'GPS_RAW_INT', 'time_usec': 556099013, 'fix_type': 3, 'lat': 462880548, 'lon': 213602954, 'alt': 112060, 'eph': 166, 'epv': 220, 'vel': 7, 'cog': 19770, 'satellites_visible': 13, 'alt_ellipsoid': 0, 'h_acc': 1660, 'v_acc': 2200, 'vel_acc': 0, 'hdg_acc': 0, 'yaw': 0}
[GPS_RAW_INT] {'mavpackettype': 'GPS_RAW_INT', 'time_usec': 556628429, 'fix_type': 3, 'lat': 462880540, 'lon': 213602952, 'alt': 112020, 'eph': 166, 'epv': 221, 'vel': 6, 'cog': 19770, 'satellites_visible': 13, 'alt_ellipsoid': 0, 'h_acc': 1660, 'v_acc': 2210, 'vel_acc': 0, 'hdg_acc': 0, 'yaw': 0}
[GPS_RAW_INT] {'mavpackettype': 'GPS_RAW_INT', 'time_usec': 557157752, 'fix_type': 3, 'lat': 462880536, 'lon': 213602955, 'alt': 111990, 'eph': 167, 'epv': 222, 'vel': 10, 'cog': 19770, 'satellites_visible': 13, 'alt_ellipsoid': 0, 'h_acc': 1670, 'v_acc': 2220, 'vel_acc': 0, 'hdg_acc': 0, 'yaw': 0}
[GPS_RAW_INT] {'mavpackettype': 'GPS_RAW_INT', 'time_usec': 557687010, 'fix_type': 3, 'lat': 462880536, 'lon': 213602963, 'alt': 112070, 'eph': 168, 'epv': 224, 'vel': 5, 'cog': 19770, 'satellites_visible': 13, 'alt_ellipsoid': 0, 'h_acc': 1680, 'v_acc': 2240, 'vel_acc': 0, 'hdg_acc': 0, 'yaw': 0}
[GPS_RAW_INT] {'mavpackettype': 'GPS_RAW_INT', 'time_usec': 558215365, 'fix_type': 3, 'lat': 462880536, 'lon': 213602972, 'alt': 112160, 'eph': 170, 'epv': 226, 'vel': 5, 'cog': 19770, 'satellites_visible': 12, 'alt_ellipsoid': 0, 'h_acc': 1700, 'v_acc': 2260, 'vel_acc': 0, 'hdg_acc': 0, 'yaw': 0}
[GPS_RAW_INT] {'mavpackettype': 'GPS_RAW_INT', 'time_usec': 558744896, 'fix_type': 3, 'lat': 462880535, 'lon': 213602970, 'alt': 112160, 'eph': 171, 'epv': 227, 'vel': 3, 'cog': 19770, 'satellites_visible': 12, 'alt_ellipsoid': 0, 'h_acc': 1710, 'v_acc': 2270, 'vel_acc': 0, 'hdg_acc': 0, 'yaw': 0}
[GPS_RAW_INT] {'mavpackettype': 'GPS_RAW_INT', 'time_usec': 559273525, 'fix_type': 3, 'lat': 462880534, 'lon': 213602971, 'alt': 112200, 'eph': 172, 'epv': 229, 'vel': 5, 'cog': 19770, 'satellites_visible': 12, 'alt_ellipsoid': 0, 'h_acc': 1720, 'v_acc': 2290, 'vel_acc': 0, 'hdg_acc': 0, 'yaw': 0}
[GPS_RAW_INT] {'mavpackettype': 'GPS_RAW_INT', 'time_usec': 559802506, 'fix_type': 3, 'lat': 462880534, 'lon': 213602974, 'alt': 112260, 'eph': 174, 'epv': 230, 'vel': 3, 'cog': 19770, 'satellites_visible': 13, 'alt_ellipsoid': 0, 'h_acc': 1740, 'v_acc': 2300, 'vel_acc': 0, 'hdg_acc': 0, 'yaw': 0}
[GPS_RAW_INT] {'mavpackettype': 'GPS_RAW_INT', 'time_usec': 560331016, 'fix_type': 3, 'lat': 462880536, 'lon': 213602978, 'alt': 112350, 'eph': 175, 'epv': 231, 'vel': 6, 'cog': 19770, 'satellites_visible': 13, 'alt_ellipsoid': 0, 'h_acc': 1750, 'v_acc': 2310, 'vel_acc': 0, 'hdg_acc': 0, 'yaw': 0}
[GPS_RAW_INT] {'mavpackettype': 'GPS_RAW_INT', 'time_usec': 560859893, 'fix_type': 3, 'lat': 462880539, 'lon': 213602977, 'alt': 112380, 'eph': 177, 'epv': 232, 'vel': 8, 'cog': 19770, 'satellites_visible': 13, 'alt_ellipsoid': 0, 'h_acc': 1770, 'v_acc': 2320, 'vel_acc': 0, 'hdg_acc': 0, 'yaw': 0}
[GPS_RAW_INT] {'mavpackettype': 'GPS_RAW_INT', 'time_usec': 561388825, 'fix_type': 3, 'lat': 462880541, 'lon': 213602979, 'alt': 112430, 'eph': 180, 'epv': 234, 'vel': 8, 'cog': 19770, 'satellites_visible': 13, 'alt_ellipsoid': 0, 'h_acc': 1800, 'v_acc': 2340, 'vel_acc': 0, 'hdg_acc': 0, 'yaw': 0}
[GPS_RAW_INT] {'mavpackettype': 'GPS_RAW_INT', 'time_usec': 561917410, 'fix_type': 3, 'lat': 462880540, 'lon': 213602978, 'alt': 112420, 'eph': 183, 'epv': 236, 'vel': 4, 'cog': 19770, 'satellites_visible': 11, 'alt_ellipsoid': 0, 'h_acc': 1830, 'v_acc': 2360, 'vel_acc': 0, 'hdg_acc': 0, 'yaw': 0}
[GPS_RAW_INT] {'mavpackettype': 'GPS_RAW_INT', 'time_usec': 562446201, 'fix_type': 3, 'lat': 462880541, 'lon': 213602977, 'alt': 112440, 'eph': 187, 'epv': 238, 'vel': 3, 'cog': 19770, 'satellites_visible': 11, 'alt_ellipsoid': 0, 'h_acc': 1870, 'v_acc': 2380, 'vel_acc': 0, 'hdg_acc': 0, 'yaw': 0}
[GPS_RAW_INT] {'mavpackettype': 'GPS_RAW_INT', 'time_usec': 563503108, 'fix_type': 3, 'lat': 462880525, 'lon': 213602983, 'alt': 112310, 'eph': 196, 'epv': 242, 'vel': 14, 'cog': 19770, 'satellites_visible': 11, 'alt_ellipsoid': 0, 'h_acc': 1960, 'v_acc': 2420, 'vel_acc': 0, 'hdg_acc': 0, 'yaw': 0}
[GPS_RAW_INT] {'mavpackettype': 'GPS_RAW_INT', 'time_usec': 564031235, 'fix_type': 3, 'lat': 462880516, 'lon': 213602996, 'alt': 112230, 'eph': 196, 'epv': 242, 'vel': 30, 'cog': 19770, 'satellites_visible': 11, 'alt_ellipsoid': 0, 'h_acc': 1960, 'v_acc': 2420, 'vel_acc': 0, 'hdg_acc': 0, 'yaw': 0}
[GPS_RAW_INT] {'mavpackettype': 'GPS_RAW_INT', 'time_usec': 564560472, 'fix_type': 3, 'lat': 462880511, 'lon': 213602995, 'alt': 112230, 'eph': 195, 'epv': 240, 'vel': 19, 'cog': 19770, 'satellites_visible': 13, 'alt_ellipsoid': 0, 'h_acc': 1950, 'v_acc': 2400, 'vel_acc': 0, 'hdg_acc': 0, 'yaw': 0}
[GPS_RAW_INT] {'mavpackettype': 'GPS_RAW_INT', 'time_usec': 565088976, 'fix_type': 3, 'lat': 462880496, 'lon': 213602981, 'alt': 112200, 'eph': 193, 'epv': 239, 'vel': 21, 'cog': 19770, 'satellites_visible': 12, 'alt_ellipsoid': 0, 'h_acc': 1930, 'v_acc': 2390, 'vel_acc': 0, 'hdg_acc': 0, 'yaw': 0}
[GPS_RAW_INT] {'mavpackettype': 'GPS_RAW_INT', 'time_usec': 565617505, 'fix_type': 3, 'lat': 462880493, 'lon': 213602985, 'alt': 112340, 'eph': 192, 'epv': 239, 'vel': 4, 'cog': 19770, 'satellites_visible': 12, 'alt_ellipsoid': 0, 'h_acc': 1920, 'v_acc': 2390, 'vel_acc': 0, 'hdg_acc': 0, 'yaw': 0}
[GPS_RAW_INT] {'mavpackettype': 'GPS_RAW_INT', 'time_usec': 566146108, 'fix_type': 3, 'lat': 462880491, 'lon': 213602981, 'alt': 112350, 'eph': 190, 'epv': 239, 'vel': 4, 'cog': 19770, 'satellites_visible': 12, 'alt_ellipsoid': 0, 'h_acc': 1900, 'v_acc': 2390, 'vel_acc': 0, 'hdg_acc': 0, 'yaw': 0}
[GPS_RAW_INT] {'mavpackettype': 'GPS_RAW_INT', 'time_usec': 566675737, 'fix_type': 3, 'lat': 462880482, 'lon': 213602972, 'alt': 112360, 'eph': 188, 'epv': 237, 'vel': 18, 'cog': 19770, 'satellites_visible': 12, 'alt_ellipsoid': 0, 'h_acc': 1880, 'v_acc': 2370, 'vel_acc': 0, 'hdg_acc': 0, 'yaw': 0}
[GPS_RAW_INT] {'mavpackettype': 'GPS_RAW_INT', 'time_usec': 567203924, 'fix_type': 3, 'lat': 462880481, 'lon': 213602965, 'alt': 112450, 'eph': 185, 'epv': 235, 'vel': 13, 'cog': 19770, 'satellites_visible': 11, 'alt_ellipsoid': 0, 'h_acc': 1850, 'v_acc': 2350, 'vel_acc': 0, 'hdg_acc': 0, 'yaw': 0}
[GPS_RAW_INT] {'mavpackettype': 'GPS_RAW_INT', 'time_usec': 567732544, 'fix_type': 3, 'lat': 462880490, 'lon': 213602962, 'alt': 112630, 'eph': 183, 'epv': 235, 'vel': 11, 'cog': 19770, 'satellites_visible': 12, 'alt_ellipsoid': 0, 'h_acc': 1830, 'v_acc': 2350, 'vel_acc': 0, 'hdg_acc': 0, 'yaw': 0}
[GPS_RAW_INT] {'mavpackettype': 'GPS_RAW_INT', 'time_usec': 568261522, 'fix_type': 3, 'lat': 462880498, 'lon': 213602972, 'alt': 112980, 'eph': 180, 'epv': 233, 'vel': 4, 'cog': 19770, 'satellites_visible': 11, 'alt_ellipsoid': 0, 'h_acc': 1800, 'v_acc': 2330, 'vel_acc': 0, 'hdg_acc': 0, 'yaw': 0}
[GPS_RAW_INT] {'mavpackettype': 'GPS_RAW_INT', 'time_usec': 568790657, 'fix_type': 3, 'lat': 462880501, 'lon': 213602978, 'alt': 113160, 'eph': 178, 'epv': 232, 'vel': 5, 'cog': 19770, 'satellites_visible': 11, 'alt_ellipsoid': 0, 'h_acc': 1780, 'v_acc': 2320, 'vel_acc': 0, 'hdg_acc': 0, 'yaw': 0}
[GPS_RAW_INT] {'mavpackettype': 'GPS_RAW_INT', 'time_usec': 569318963, 'fix_type': 3, 'lat': 462880506, 'lon': 213602994, 'alt': 113530, 'eph': 176, 'epv': 231, 'vel': 4, 'cog': 19770, 'satellites_visible': 11, 'alt_ellipsoid': 0, 'h_acc': 1760, 'v_acc': 2310, 'vel_acc': 0, 'hdg_acc': 0, 'yaw': 0}
[GPS_RAW_INT] {'mavpackettype': 'GPS_RAW_INT', 'time_usec': 569847719, 'fix_type': 3, 'lat': 462880511, 'lon': 213603005, 'alt': 113790, 'eph': 175, 'epv': 230, 'vel': 8, 'cog': 19770, 'satellites_visible': 11, 'alt_ellipsoid': 0, 'h_acc': 1750, 'v_acc': 2300, 'vel_acc': 0, 'hdg_acc': 0, 'yaw': 0}
[GPS_RAW_INT] {'mavpackettype': 'GPS_RAW_INT', 'time_usec': 570376342, 'fix_type': 3, 'lat': 462880511, 'lon': 213603009, 'alt': 113940, 'eph': 174, 'epv': 230, 'vel': 3, 'cog': 19770, 'satellites_visible': 11, 'alt_ellipsoid': 0, 'h_acc': 1740, 'v_acc': 2300, 'vel_acc': 0, 'hdg_acc': 0, 'yaw': 0}
[GPS_RAW_INT] {'mavpackettype': 'GPS_RAW_INT', 'time_usec': 571434304, 'fix_type': 3, 'lat': 462880519, 'lon': 213603024, 'alt': 114470, 'eph': 172, 'epv': 229, 'vel': 11, 'cog': 19770, 'satellites_visible': 11, 'alt_ellipsoid': 0, 'h_acc': 1720, 'v_acc': 2290, 'vel_acc': 0, 'hdg_acc': 0, 'yaw': 0}
[GPS_RAW_INT] {'mavpackettype': 'GPS_RAW_INT', 'time_usec': 571963174, 'fix_type': 3, 'lat': 462880521, 'lon': 213603031, 'alt': 114660, 'eph': 172, 'epv': 229, 'vel': 11, 'cog': 19770, 'satellites_visible': 11, 'alt_ellipsoid': 0, 'h_acc': 1720, 'v_acc': 2290, 'vel_acc': 0, 'hdg_acc': 0, 'yaw': 0}
[GPS_RAW_INT] {'mavpackettype': 'GPS_RAW_INT', 'time_usec': 572492385, 'fix_type': 3, 'lat': 462880524, 'lon': 213603033, 'alt': 114850, 'eph': 172, 'epv': 229, 'vel': 3, 'cog': 19770, 'satellites_visible': 11, 'alt_ellipsoid': 0, 'h_acc': 1720, 'v_acc': 2290, 'vel_acc': 0, 'hdg_acc': 0, 'yaw': 0}
[GPS_RAW_INT] {'mavpackettype': 'GPS_RAW_INT', 'time_usec': 573021677, 'fix_type': 3, 'lat': 462880525, 'lon': 213603025, 'alt': 115020, 'eph': 172, 'epv': 229, 'vel': 11, 'cog': 19770, 'satellites_visible': 11, 'alt_ellipsoid': 0, 'h_acc': 1720, 'v_acc': 2290, 'vel_acc': 0, 'hdg_acc': 0, 'yaw': 0}
[GPS_RAW_INT] {'mavpackettype': 'GPS_RAW_INT', 'time_usec': 573551082, 'fix_type': 3, 'lat': 462880525, 'lon': 213603026, 'alt': 115110, 'eph': 172, 'epv': 228, 'vel': 8, 'cog': 19770, 'satellites_visible': 11, 'alt_ellipsoid': 0, 'h_acc': 1720, 'v_acc': 2280, 'vel_acc': 0, 'hdg_acc': 0, 'yaw': 0}
[GPS_RAW_INT] {'mavpackettype': 'GPS_RAW_INT', 'time_usec': 574079923, 'fix_type': 3, 'lat': 462880527, 'lon': 213603023, 'alt': 115220, 'eph': 172, 'epv': 229, 'vel': 13, 'cog': 19770, 'satellites_visible': 11, 'alt_ellipsoid': 0, 'h_acc': 1720, 'v_acc': 2290, 'vel_acc': 0, 'hdg_acc': 0, 'yaw': 0}
[GPS_RAW_INT] {'mavpackettype': 'GPS_RAW_INT', 'time_usec': 574608606, 'fix_type': 3, 'lat': 462880535, 'lon': 213603019, 'alt': 115300, 'eph': 172, 'epv': 230, 'vel': 28, 'cog': 19770, 'satellites_visible': 11, 'alt_ellipsoid': 0, 'h_acc': 1720, 'v_acc': 2300, 'vel_acc': 0, 'hdg_acc': 0, 'yaw': 0}
[GPS_RAW_INT] {'mavpackettype': 'GPS_RAW_INT', 'time_usec': 575137054, 'fix_type': 3, 'lat': 462880548, 'lon': 213603010, 'alt': 115400, 'eph': 173, 'epv': 231, 'vel': 57, 'cog': 25270, 'satellites_visible': 11, 'alt_ellipsoid': 0, 'h_acc': 1730, 'v_acc': 2310, 'vel_acc': 0, 'hdg_acc': 0, 'yaw': 0}
[GPS_RAW_INT] {'mavpackettype': 'GPS_RAW_INT', 'time_usec': 575665565, 'fix_type': 3, 'lat': 462880569, 'lon': 213602989, 'alt': 115410, 'eph': 174, 'epv': 233, 'vel': 71, 'cog': 30900, 'satellites_visible': 12, 'alt_ellipsoid': 0, 'h_acc': 1740, 'v_acc': 2330, 'vel_acc': 0, 'hdg_acc': 0, 'yaw': 0}
[GPS_RAW_INT] {'mavpackettype': 'GPS_RAW_INT', 'time_usec': 576194032, 'fix_type': 3, 'lat': 462880583, 'lon': 213602984, 'alt': 115450, 'eph': 175, 'epv': 234, 'vel': 31, 'cog': 31780, 'satellites_visible': 10, 'alt_ellipsoid': 0, 'h_acc': 1750, 'v_acc': 2340, 'vel_acc': 0, 'hdg_acc': 0, 'yaw': 0}
[GPS_RAW_INT] {'mavpackettype': 'GPS_RAW_INT', 'time_usec': 576723515, 'fix_type': 3, 'lat': 462880575, 'lon': 213602954, 'alt': 115390, 'eph': 177, 'epv': 236, 'vel': 12, 'cog': 31780, 'satellites_visible': 12, 'alt_ellipsoid': 0, 'h_acc': 1770, 'v_acc': 2360, 'vel_acc': 0, 'hdg_acc': 0, 'yaw': 0}
[GPS_RAW_INT] {'mavpackettype': 'GPS_RAW_INT', 'time_usec': 577251503, 'fix_type': 3, 'lat': 462880566, 'lon': 213602919, 'alt': 114800, 'eph': 178, 'epv': 238, 'vel': 24, 'cog': 31780, 'satellites_visible': 12, 'alt_ellipsoid': 0, 'h_acc': 1780, 'v_acc': 2380, 'vel_acc': 0, 'hdg_acc': 0, 'yaw': 0}
[GPS_RAW_INT] {'mavpackettype': 'GPS_RAW_INT', 'time_usec': 577780115, 'fix_type': 3, 'lat': 462880578, 'lon': 213602915, 'alt': 114660, 'eph': 178, 'epv': 238, 'vel': 34, 'cog': 31780, 'satellites_visible': 12, 'alt_ellipsoid': 0, 'h_acc': 1780, 'v_acc': 2380, 'vel_acc': 0, 'hdg_acc': 0, 'yaw': 0}
[GPS_RAW_INT] {'mavpackettype': 'GPS_RAW_INT', 'time_usec': 578307981, 'fix_type': 3, 'lat': 462880570, 'lon': 213602918, 'alt': 114860, 'eph': 178, 'epv': 238, 'vel': 23, 'cog': 31780, 'satellites_visible': 12, 'alt_ellipsoid': 0, 'h_acc': 1780, 'v_acc': 2380, 'vel_acc': 0, 'hdg_acc': 0, 'yaw': 0}
[GPS_RAW_INT] {'mavpackettype': 'GPS_RAW_INT', 'time_usec': 578837123, 'fix_type': 3, 'lat': 462880575, 'lon': 213602917, 'alt': 114890, 'eph': 178, 'epv': 238, 'vel': 11, 'cog': 31780, 'satellites_visible': 12, 'alt_ellipsoid': 0, 'h_acc': 1780, 'v_acc': 2380, 'vel_acc': 0, 'hdg_acc': 0, 'yaw': 0}
[GPS_RAW_INT] {'mavpackettype': 'GPS_RAW_INT', 'time_usec': 579366253, 'fix_type': 3, 'lat': 462880568, 'lon': 213602911, 'alt': 114960, 'eph': 178, 'epv': 239, 'vel': 28, 'cog': 31780, 'satellites_visible': 12, 'alt_ellipsoid': 0, 'h_acc': 1780, 'v_acc': 2390, 'vel_acc': 0, 'hdg_acc': 0, 'yaw': 0}
[GPS_RAW_INT] {'mavpackettype': 'GPS_RAW_INT', 'time_usec': 579895311, 'fix_type': 3, 'lat': 462880569, 'lon': 213602885, 'alt': 114770, 'eph': 181, 'epv': 241, 'vel': 24, 'cog': 31780, 'satellites_visible': 12, 'alt_ellipsoid': 0, 'h_acc': 1810, 'v_acc': 2410, 'vel_acc': 0, 'hdg_acc': 0, 'yaw': 0}
[GPS_RAW_INT] {'mavpackettype': 'GPS_RAW_INT', 'time_usec': 580953185, 'fix_type': 3, 'lat': 462880569, 'lon': 213602862, 'alt': 114740, 'eph': 181, 'epv': 240, 'vel': 11, 'cog': 31780, 'satellites_visible': 12, 'alt_ellipsoid': 0, 'h_acc': 1810, 'v_acc': 2400, 'vel_acc': 0, 'hdg_acc': 0, 'yaw': 0}
[GPS_RAW_INT] {'mavpackettype': 'GPS_RAW_INT', 'time_usec': 581482225, 'fix_type': 3, 'lat': 462880574, 'lon': 213602862, 'alt': 114820, 'eph': 180, 'epv': 238, 'vel': 7, 'cog': 31780, 'satellites_visible': 12, 'alt_ellipsoid': 0, 'h_acc': 1800, 'v_acc': 2380, 'vel_acc': 0, 'hdg_acc': 0, 'yaw': 0}
[GPS_RAW_INT] {'mavpackettype': 'GPS_RAW_INT', 'time_usec': 582011097, 'fix_type': 3, 'lat': 462880579, 'lon': 213602864, 'alt': 114940, 'eph': 179, 'epv': 236, 'vel': 6, 'cog': 31780, 'satellites_visible': 12, 'alt_ellipsoid': 0, 'h_acc': 1790, 'v_acc': 2360, 'vel_acc': 0, 'hdg_acc': 0, 'yaw': 0}
[GPS_RAW_INT] {'mavpackettype': 'GPS_RAW_INT', 'time_usec': 582540436, 'fix_type': 3, 'lat': 462880593, 'lon': 213602863, 'alt': 115110, 'eph': 177, 'epv': 235, 'vel': 6, 'cog': 31780, 'satellites_visible': 12, 'alt_ellipsoid': 0, 'h_acc': 1770, 'v_acc': 2350, 'vel_acc': 0, 'hdg_acc': 0, 'yaw': 0}
[GPS_RAW_INT] {'mavpackettype': 'GPS_RAW_INT', 'time_usec': 583070089, 'fix_type': 3, 'lat': 462880597, 'lon': 213602856, 'alt': 115170, 'eph': 176, 'epv': 234, 'vel': 6, 'cog': 31780, 'satellites_visible': 12, 'alt_ellipsoid': 0, 'h_acc': 1760, 'v_acc': 2340, 'vel_acc': 0, 'hdg_acc': 0, 'yaw': 0}
[GPS_RAW_INT] {'mavpackettype': 'GPS_RAW_INT', 'time_usec': 583599102, 'fix_type': 3, 'lat': 462880599, 'lon': 213602852, 'alt': 115210, 'eph': 175, 'epv': 233, 'vel': 3, 'cog': 31780, 'satellites_visible': 12, 'alt_ellipsoid': 0, 'h_acc': 1750, 'v_acc': 2330, 'vel_acc': 0, 'hdg_acc': 0, 'yaw': 0}
[GPS_RAW_INT] {'mavpackettype': 'GPS_RAW_INT', 'time_usec': 584128166, 'fix_type': 3, 'lat': 462880600, 'lon': 213602861, 'alt': 115400, 'eph': 174, 'epv': 233, 'vel': 4, 'cog': 31780, 'satellites_visible': 12, 'alt_ellipsoid': 0, 'h_acc': 1740, 'v_acc': 2330, 'vel_acc': 0, 'hdg_acc': 0, 'yaw': 0}
[GPS_RAW_INT] {'mavpackettype': 'GPS_RAW_INT', 'time_usec': 584657558, 'fix_type': 3, 'lat': 462880595, 'lon': 213602866, 'alt': 115360, 'eph': 173, 'epv': 232, 'vel': 6, 'cog': 31780, 'satellites_visible': 12, 'alt_ellipsoid': 0, 'h_acc': 1730, 'v_acc': 2320, 'vel_acc': 0, 'hdg_acc': 0, 'yaw': 0}
[GPS_RAW_INT] {'mavpackettype': 'GPS_RAW_INT', 'time_usec': 585187543, 'fix_type': 3, 'lat': 462880592, 'lon': 213602867, 'alt': 115390, 'eph': 172, 'epv': 232, 'vel': 6, 'cog': 31780, 'satellites_visible': 12, 'alt_ellipsoid': 0, 'h_acc': 1720, 'v_acc': 2320, 'vel_acc': 0, 'hdg_acc': 0, 'yaw': 0}
[GPS_RAW_INT] {'mavpackettype': 'GPS_RAW_INT', 'time_usec': 585715629, 'fix_type': 3, 'lat': 462880589, 'lon': 213602868, 'alt': 115480, 'eph': 171, 'epv': 232, 'vel': 2, 'cog': 31780, 'satellites_visible': 12, 'alt_ellipsoid': 0, 'h_acc': 1710, 'v_acc': 2320, 'vel_acc': 0, 'hdg_acc': 0, 'yaw': 0}
[GPS_RAW_INT] {'mavpackettype': 'GPS_RAW_INT', 'time_usec': 586245225, 'fix_type': 3, 'lat': 462880591, 'lon': 213602859, 'alt': 115640, 'eph': 168, 'epv': 230, 'vel': 7, 'cog': 31780, 'satellites_visible': 12, 'alt_ellipsoid': 0, 'h_acc': 1680, 'v_acc': 2300, 'vel_acc': 0, 'hdg_acc': 0, 'yaw': 0}
[GPS_RAW_INT] {'mavpackettype': 'GPS_RAW_INT', 'time_usec': 586774047, 'fix_type': 3, 'lat': 462880595, 'lon': 213602859, 'alt': 115650, 'eph': 167, 'epv': 229, 'vel': 5, 'cog': 31780, 'satellites_visible': 12, 'alt_ellipsoid': 0, 'h_acc': 1670, 'v_acc': 2290, 'vel_acc': 0, 'hdg_acc': 0, 'yaw': 0}
[GPS_RAW_INT] {'mavpackettype': 'GPS_RAW_INT', 'time_usec': 587303275, 'fix_type': 3, 'lat': 462880595, 'lon': 213602859, 'alt': 115670, 'eph': 166, 'epv': 228, 'vel': 8, 'cog': 31780, 'satellites_visible': 12, 'alt_ellipsoid': 0, 'h_acc': 1660, 'v_acc': 2280, 'vel_acc': 0, 'hdg_acc': 0, 'yaw': 0}
[GPS_RAW_INT] {'mavpackettype': 'GPS_RAW_INT', 'time_usec': 587831914, 'fix_type': 3, 'lat': 462880592, 'lon': 213602860, 'alt': 115710, 'eph': 165, 'epv': 228, 'vel': 14, 'cog': 31780, 'satellites_visible': 12, 'alt_ellipsoid': 0, 'h_acc': 1650, 'v_acc': 2280, 'vel_acc': 0, 'hdg_acc': 0, 'yaw': 0}
[GPS_RAW_INT] {'mavpackettype': 'GPS_RAW_INT', 'time_usec': 588360380, 'fix_type': 3, 'lat': 462880590, 'lon': 213602854, 'alt': 115680, 'eph': 165, 'epv': 227, 'vel': 14, 'cog': 31780, 'satellites_visible': 12, 'alt_ellipsoid': 0, 'h_acc': 1650, 'v_acc': 2270, 'vel_acc': 0, 'hdg_acc': 0, 'yaw': 0}
[GPS_RAW_INT] {'mavpackettype': 'GPS_RAW_INT', 'time_usec': 588890044, 'fix_type': 3, 'lat': 462880587, 'lon': 213602856, 'alt': 115660, 'eph': 165, 'epv': 228, 'vel': 17, 'cog': 31780, 'satellites_visible': 11, 'alt_ellipsoid': 0, 'h_acc': 1650, 'v_acc': 2280, 'vel_acc': 0, 'hdg_acc': 0, 'yaw': 0}
[GPS_RAW_INT] {'mavpackettype': 'GPS_RAW_INT', 'time_usec': 589418339, 'fix_type': 3, 'lat': 462880587, 'lon': 213602853, 'alt': 115630, 'eph': 166, 'epv': 229, 'vel': 8, 'cog': 31780, 'satellites_visible': 11, 'alt_ellipsoid': 0, 'h_acc': 1660, 'v_acc': 2290, 'vel_acc': 0, 'hdg_acc': 0, 'yaw': 0}
[GPS_RAW_INT] {'mavpackettype': 'GPS_RAW_INT', 'time_usec': 589948350, 'fix_type': 3, 'lat': 462880577, 'lon': 213602836, 'alt': 115490, 'eph': 167, 'epv': 231, 'vel': 22, 'cog': 31780, 'satellites_visible': 11, 'alt_ellipsoid': 0, 'h_acc': 1670, 'v_acc': 2310, 'vel_acc': 0, 'hdg_acc': 0, 'yaw': 0}
[GPS_RAW_INT] {'mavpackettype': 'GPS_RAW_INT', 'time_usec': 590476220, 'fix_type': 3, 'lat': 462880575, 'lon': 213602834, 'alt': 115480, 'eph': 168, 'epv': 233, 'vel': 14, 'cog': 31780, 'satellites_visible': 12, 'alt_ellipsoid': 0, 'h_acc': 1680, 'v_acc': 2330, 'vel_acc': 0, 'hdg_acc': 0, 'yaw': 0}
